[
    {
        "Name": "Ainslie Newsagency and Licensed Post Office",
        "Region": "Northside",
        "Address": "3 Edgar St, Ainslie ACT 2602",
        "Location": "POINT (149.14508 -35.26243)"
    },
    {
        "Name": "Blackjack Kiosk",
        "Region": "Southside",
        "Address": "Shop 22B, Erindale Shopping Centre, Wanniassa",
        "Location": "POINT (149.098627 -35.403686)"
    },
    {
        "Name": "Calwell Video and Post",
        "Region": "Southside",
        "Address": "Shop 22, Calwell Shopping Centre, Calwell",
        "Location": "POINT (149.114312 -35.434953)"
    },
    {
        "Name": "Canberra House Newsagency",
        "Region": "Civic",
        "Address": "8-10 Hobart Place",
        "Location": "POINT (149.12629 -35.27903)"
    },
    {
        "Name": "Canberra Institute of Technology",
        "Region": "Civic",
        "Address": "36 Constitution Avenue, Reid ACT 2601",
        "Location": "POINT (149.137633 -35.285974)"
    },
    {
        "Name": "Charnwood Newsagency",
        "Region": "Northside",
        "Address": "Shop 4, FADCO Building, Charnwood Place, Charnwood",
        "Location": "POINT (149.03407480000004 -35.2045852)"
    },
    {
        "Name": "Chisholm Newsagency and Post Office",
        "Region": "Southside",
        "Address": "5 Halley Street, Chisholm",
        "Location": "POINT (149.129624 -35.414149)"
    },
    {
        "Name": "Cooleman Court Newsagency",
        "Region": "Southside",
        "Address": "5/26 Brierly Street, Weston",
        "Location": "POINT (149.052864 -35.3417)"
    },
    {
        "Name": "Dickson Newsagency",
        "Region": "Northside",
        "Address": "6 Dickson Place, Dickson",
        "Location": "POINT (149.1388866 -35.2502366)"
    },
    {
        "Name": "EzyMart",
        "Region": "Civic",
        "Address": "Jolimont Centre, 65 Northbourne Ave, Canberra ACT 2601",
        "Location": "POINT (149.128969 -35.277689)"
    },
    {
        "Name": "Gungahlin Newsagency",
        "Region": "Northside",
        "Address": "Shop 12, 33 Hibberson Street, Gungahlin",
        "Location": "POINT (149.134114 -35.185216)"
    },
    {
        "Name": "Gungahlin Post Office",
        "Region": "Northside",
        "Address": "46-50 Hibberson Street, Gungahlin",
        "Location": "POINT (149.136877 -35.186078)"
    },
    {
        "Name": "Hawker Newsagency",
        "Region": "Northside",
        "Address": "Shop 2 Hawker Place, Hawker",
        "Location": "POINT (149.0435153 -35.2431766)"
    },
    {
        "Name": "Jamison Centre Newsagency",
        "Region": "Northside",
        "Address": "Shop 3 & 4, 39-43 Bowman Street, Macquarie",
        "Location": "POINT (149.072889 -35.252313)"
    },
    {
        "Name": "Kambah News Agency",
        "Region": "Southside",
        "Address": "13/5 Primmer Ct, Kambah ACT 2902",
        "Location": "POINT (149.057705 -35.379983)"
    },
    {
        "Name": "Kingston Newsagency",
        "Region": "Southside",
        "Address": "66 Giles Street, Kingston",
        "Location": "POINT (149.141241 -35.315108)"
    },
    {
        "Name": "Kippax Fair Newsagency",
        "Region": "Northside",
        "Address": "25 Hardwick Crescent, Holt ACT 2615",
        "Location": "POINT (149.019849 -35.222364)"
    },
    {
        "Name": "Lanyon Newsagency",
        "Region": "Southside",
        "Address": "Shop 18, Lanyon Market Place, Conder",
        "Location": "POINT (149.09284 -35.45745)"
    },
    {
        "Name": "Manuka Newsagency",
        "Region": "Southside",
        "Address": "38 Franklin Street, Manuka",
        "Location": "POINT (149.13274 -35.319892)"
    },
    {
        "Name": "NewsXpress Belconnen",
        "Region": "Northside",
        "Address": "Shop 114, Level 1, Westfield Belconnen, Belconnen",
        "Location": "POINT (149.066786 -35.2382717)"
    },
    {
        "Name": "NewsXpress Woden",
        "Region": "Southside",
        "Address": "Shop L66 Westfield Woden, Woden",
        "Location": "POINT (149.086637 -35.346323)"
    },
    {
        "Name": "Nextra Hyperdome",
        "Region": "Southside",
        "Address": "Shop 15A, Tuggeranong Hyperdome, Tuggeranong",
        "Location": "POINT (149.0672421 -35.4167587)"
    },
    {
        "Name": "Nextra/Newsfront Newsagency",
        "Region": "Northside",
        "Address": "Shop 50A Westfield Belconnen, Belconnen",
        "Location": "POINT (149.0655255 -35.2383112)"
    },
    {
        "Name": "Southlands Newsagency",
        "Region": "Southside",
        "Address": "Shop 6, Southlands Shopping Centre, Mawson",
        "Location": "POINT (149.094781 -35.364687)"
    },
    {
        "Name": "Supa24 Convenience",
        "Region": "Civic",
        "Address": "2 Mort Street, City",
        "Location": "POINT (149.130814 -35.278412)"
    },
    {
        "Name": "Supanews",
        "Region": "Civic",
        "Address": "EG11, Canberra Centre, Bunda Street, City",
        "Location": "POINT (149.1331547 -35.2782666)"
    },
    {
        "Name": "The Barrow",
        "Region": "Civic",
        "Address": "146/2 Akuna Street, City",
        "Location": "POINT (149.132541 -35.282206)"
    },
    {
        "Name": "Thistle Kiosk",
        "Region": "Southside",
        "Address": "Westfield Woden Marketplace (Opposite Coles), Woden",
        "Location": "POINT (149.08534500000002 -35.346579)"
    },
    {
        "Name": "University of Canberra",
        "Region": "Northside",
        "Address": "University Drive, Bruce ACT 2617",
        "Location": "POINT (149.0841085 -35.2381785)"
    }
]