[
    {
        "Dog_Name": "Q",
        "Dog_Breed": "Cockerpoo",
        "Location_masked": "(42.37695144, -71.13143341)",
        "Latitude_masked": -71.13143341,
        "Longitude_masked": -71.13143341,
        "Neighborhood": "West Cambridge"
    },
    {
        "Dog_Name": "Parker",
        "Dog_Breed": "Pointer",
        "Location_masked": "(42.36524806, -71.10962391)",
        "Latitude_masked": -71.10962391,
        "Longitude_masked": -71.10962391,
        "Neighborhood": "Riverside"
    },
    {
        "Dog_Name": "Arrow",
        "Dog_Breed": "Poodle",
        "Location_masked": "(42.36035777, -71.11422322)",
        "Latitude_masked": -71.11422322,
        "Longitude_masked": -71.11422322,
        "Neighborhood": "Cambridgeport"
    },
    {
        "Dog_Name": "Shasta",
        "Dog_Breed": "Shih Poo",
        "Location_masked": "(42.3745027, -71.0937696)",
        "Latitude_masked": -71.0937696,
        "Longitude_masked": -71.0937696,
        "Neighborhood": null
    },
    {
        "Dog_Name": "Poona",
        "Dog_Breed": "Mix",
        "Location_masked": "(42.39135517, -71.13466501)",
        "Latitude_masked": -71.13466501,
        "Longitude_masked": -71.13466501,
        "Neighborhood": "Neighborhood Nine"
    },
    {
        "Dog_Name": "Boomer",
        "Dog_Breed": "Labrador Beagle Mix",
        "Location_masked": "(42.36981547, -71.0923783)",
        "Latitude_masked": -71.0923783,
        "Longitude_masked": -71.0923783,
        "Neighborhood": "Wellington-Harrington"
    },
    {
        "Dog_Name": "Trooper",
        "Dog_Breed": "Weimaramer",
        "Location_masked": "(42.36868118, -71.11213291)",
        "Latitude_masked": -71.11213291,
        "Longitude_masked": -71.11213291,
        "Neighborhood": "Riverside"
    },
    {
        "Dog_Name": "Pappu",
        "Dog_Breed": "Pomeranian",
        "Location_masked": "(42.36443727, -71.09657013)",
        "Latitude_masked": -71.09657013,
        "Longitude_masked": -71.09657013,
        "Neighborhood": "The Port"
    },
    {
        "Dog_Name": "Bess",
        "Dog_Breed": "Brittany Spaniel",
        "Location_masked": "(42.36891145, -71.10613815)",
        "Latitude_masked": -71.10613815,
        "Longitude_masked": -71.10613815,
        "Neighborhood": "Mid-Cambridge"
    },
    {
        "Dog_Name": "Ness",
        "Dog_Breed": "Schnauzer",
        "Location_masked": "(42.36824233, -71.10226469)",
        "Latitude_masked": -71.10226469,
        "Longitude_masked": -71.10226469,
        "Neighborhood": "The Port"
    },
    {
        "Dog_Name": "Tommy",
        "Dog_Breed": "Chihuahua Mix",
        "Location_masked": "(42.36361375, -71.09967878)",
        "Latitude_masked": -71.09967878,
        "Longitude_masked": -71.09967878,
        "Neighborhood": "Cambridgeport"
    },
    {
        "Dog_Name": "Jasper",
        "Dog_Breed": "Labradoddle",
        "Location_masked": "(42.36333819, -71.11119821)",
        "Latitude_masked": -71.11119821,
        "Longitude_masked": -71.11119821,
        "Neighborhood": "Cambridgeport"
    },
    {
        "Dog_Name": "Busy",
        "Dog_Breed": "Cairn Terr.",
        "Location_masked": "(42.36197889, -71.10832262)",
        "Latitude_masked": -71.10832262,
        "Longitude_masked": -71.10832262,
        "Neighborhood": "Cambridgeport"
    },
    {
        "Dog_Name": "Oscar",
        "Dog_Breed": "German Shepherd Mix",
        "Location_masked": "(42.36994868, -71.11130235)",
        "Latitude_masked": -71.11130235,
        "Longitude_masked": -71.11130235,
        "Neighborhood": "Riverside"
    },
    {
        "Dog_Name": "Elsa",
        "Dog_Breed": "Shih Tzu",
        "Location_masked": "(42.37305455, -71.0972054)",
        "Latitude_masked": -71.0972054,
        "Longitude_masked": -71.0972054,
        "Neighborhood": "Wellington-Harrington"
    },
    {
        "Dog_Name": "Dolly",
        "Dog_Breed": "Labrador Retriever",
        "Location_masked": "(42.37106846, -71.11219484)",
        "Latitude_masked": -71.11219484,
        "Longitude_masked": -71.11219484,
        "Neighborhood": "Mid-Cambridge"
    },
    {
        "Dog_Name": "Lola",
        "Dog_Breed": "Springer Spaniel",
        "Location_masked": "(42.35604465, -71.10844835)",
        "Latitude_masked": -71.10844835,
        "Longitude_masked": -71.10844835,
        "Neighborhood": "Cambridgeport"
    },
    {
        "Dog_Name": "Frida Marcantonio",
        "Dog_Breed": "Havanese",
        "Location_masked": "(42.37242852, -71.12642828)",
        "Latitude_masked": -71.12642828,
        "Longitude_masked": -71.12642828,
        "Neighborhood": "West Cambridge"
    },
    {
        "Dog_Name": "Bowie",
        "Dog_Breed": "Vizsla",
        "Location_masked": "(42.39974939, -71.12808433)",
        "Latitude_masked": -71.12808433,
        "Longitude_masked": -71.12808433,
        "Neighborhood": "North Cambridge"
    },
    {
        "Dog_Name": "Chloe",
        "Dog_Breed": "Polish Lowland Sheepdog",
        "Location_masked": "(42.37508792, -71.09829801)",
        "Latitude_masked": -71.09829801,
        "Longitude_masked": -71.09829801,
        "Neighborhood": "Wellington-Harrington"
    },
    {
        "Dog_Name": "Maddie",
        "Dog_Breed": "Hound",
        "Location_masked": "(42.38785172, -71.15800777)",
        "Latitude_masked": -71.15800777,
        "Longitude_masked": -71.15800777,
        "Neighborhood": "Strawberry Hill"
    },
    {
        "Dog_Name": "Iggy",
        "Dog_Breed": "American Eskimo",
        "Location_masked": "(42.37782084, -71.12627785)",
        "Latitude_masked": -71.12627785,
        "Longitude_masked": -71.12627785,
        "Neighborhood": "Neighborhood Nine"
    },
    {
        "Dog_Name": "Hedy Bouquet",
        "Dog_Breed": "French Bulldog",
        "Location_masked": "(42.37671808, -71.14819332)",
        "Latitude_masked": -71.14819332,
        "Longitude_masked": -71.14819332,
        "Neighborhood": "West Cambridge"
    },
    {
        "Dog_Name": "Piper",
        "Dog_Breed": "Chi/Terr Mix",
        "Location_masked": "(42.3682697, -71.08334045)",
        "Latitude_masked": -71.08334045,
        "Longitude_masked": -71.08334045,
        "Neighborhood": "East Cambridge"
    },
    {
        "Dog_Name": "Apollo",
        "Dog_Breed": "Pit Bull Terrier Mix",
        "Location_masked": "(42.38796802, -71.133027)",
        "Latitude_masked": -71.133027,
        "Longitude_masked": -71.133027,
        "Neighborhood": "Neighborhood Nine"
    },
    {
        "Dog_Name": "Little Juda",
        "Dog_Breed": "Yorkie Poo",
        "Location_masked": "(42.40442133, -71.13426903)",
        "Latitude_masked": -71.13426903,
        "Longitude_masked": -71.13426903,
        "Neighborhood": "North Cambridge"
    },
    {
        "Dog_Name": "Mojo",
        "Dog_Breed": "Labrador Retriever",
        "Location_masked": "(42.39151608, -71.13112664)",
        "Latitude_masked": -71.13112664,
        "Longitude_masked": -71.13112664,
        "Neighborhood": "North Cambridge"
    },
    {
        "Dog_Name": "Sweetie",
        "Dog_Breed": "Beagle",
        "Location_masked": "(42.37532621, -71.12608067)",
        "Latitude_masked": -71.12608067,
        "Longitude_masked": -71.12608067,
        "Neighborhood": "West Cambridge"
    },
    {
        "Dog_Name": "Duro",
        "Dog_Breed": "Siberian Husky",
        "Location_masked": "(42.37239, -71.10998146)",
        "Latitude_masked": -71.10998146,
        "Longitude_masked": -71.10998146,
        "Neighborhood": "Mid-Cambridge"
    },
    {
        "Dog_Name": "Nany",
        "Dog_Breed": "Pomeranian",
        "Location_masked": "(42.36821717, -71.10060644)",
        "Latitude_masked": -71.10060644,
        "Longitude_masked": -71.10060644,
        "Neighborhood": "Mid-Cambridge"
    },
    {
        "Dog_Name": "Lorelei",
        "Dog_Breed": "Greyhound",
        "Location_masked": "(42.37266177, -71.08656779)",
        "Latitude_masked": -71.08656779,
        "Longitude_masked": -71.08656779,
        "Neighborhood": "East Cambridge"
    },
    {
        "Dog_Name": "Dottie",
        "Dog_Breed": "Pit Bull Mix",
        "Location_masked": "(42.38700048, -71.14401572)",
        "Latitude_masked": -71.14401572,
        "Longitude_masked": -71.14401572,
        "Neighborhood": "Cambridge Highlands"
    },
    {
        "Dog_Name": "Ziggy",
        "Dog_Breed": "Golden Doodle",
        "Location_masked": "(42.39454209, -71.13015301)",
        "Latitude_masked": -71.13015301,
        "Longitude_masked": -71.13015301,
        "Neighborhood": "North Cambridge"
    },
    {
        "Dog_Name": "Emmy",
        "Dog_Breed": "Boston Terrier",
        "Location_masked": "(42.38906956, -71.12214756)",
        "Latitude_masked": -71.12214756,
        "Longitude_masked": -71.12214756,
        "Neighborhood": "Neighborhood Nine"
    },
    {
        "Dog_Name": "Loki",
        "Dog_Breed": "Toy Fox Terrier",
        "Location_masked": "(42.38719173, -71.1450649)",
        "Latitude_masked": -71.1450649,
        "Longitude_masked": -71.1450649,
        "Neighborhood": "Cambridge Highlands"
    },
    {
        "Dog_Name": "Peetsie",
        "Dog_Breed": "Golden Retriever",
        "Location_masked": "(42.37827492, -71.14472111)",
        "Latitude_masked": -71.14472111,
        "Longitude_masked": -71.14472111,
        "Neighborhood": "West Cambridge"
    },
    {
        "Dog_Name": "Stasi",
        "Dog_Breed": "Doberman",
        "Location_masked": "(42.37489314, -71.14379701)",
        "Latitude_masked": -71.14379701,
        "Longitude_masked": -71.14379701,
        "Neighborhood": "West Cambridge"
    },
    {
        "Dog_Name": "Finnegan",
        "Dog_Breed": "Maltese",
        "Location_masked": "(42.37154416, -71.0848749)",
        "Latitude_masked": -71.0848749,
        "Longitude_masked": -71.0848749,
        "Neighborhood": "East Cambridge"
    },
    {
        "Dog_Name": "C.J.",
        "Dog_Breed": "Newfoundland",
        "Location_masked": "(42.3804176, -71.14638809)",
        "Latitude_masked": -71.14638809,
        "Longitude_masked": -71.14638809,
        "Neighborhood": "West Cambridge"
    },
    {
        "Dog_Name": "Bohdi",
        "Dog_Breed": "Portuguese Water Dog",
        "Location_masked": "(42.37596407, -71.12948117)",
        "Latitude_masked": -71.12948117,
        "Longitude_masked": -71.12948117,
        "Neighborhood": "West Cambridge"
    },
    {
        "Dog_Name": "Obie",
        "Dog_Breed": "Labrador Retriever",
        "Location_masked": "(42.38147031, -71.12176434)",
        "Latitude_masked": -71.12176434,
        "Longitude_masked": -71.12176434,
        "Neighborhood": "Neighborhood Nine"
    },
    {
        "Dog_Name": "Delilah",
        "Dog_Breed": "LABRADOR Retriever",
        "Location_masked": "(42.36053081, -71.10893964)",
        "Latitude_masked": -71.10893964,
        "Longitude_masked": -71.10893964,
        "Neighborhood": "Cambridgeport"
    },
    {
        "Dog_Name": "Willie",
        "Dog_Breed": "Yorkie Poo",
        "Location_masked": "(42.37141751, -71.11474121)",
        "Latitude_masked": -71.11474121,
        "Longitude_masked": -71.11474121,
        "Neighborhood": "Mid-Cambridge"
    },
    {
        "Dog_Name": "Murphy",
        "Dog_Breed": "Pug",
        "Location_masked": "(42.38473756, -71.1257116)",
        "Latitude_masked": -71.1257116,
        "Longitude_masked": -71.1257116,
        "Neighborhood": "Neighborhood Nine"
    },
    {
        "Dog_Name": "Sandy",
        "Dog_Breed": "Cairn Terr",
        "Location_masked": "(42.38136295, -71.13063046)",
        "Latitude_masked": -71.13063046,
        "Longitude_masked": -71.13063046,
        "Neighborhood": "Neighborhood Nine"
    },
    {
        "Dog_Name": "Fyodor",
        "Dog_Breed": "Miniature Schnauzer",
        "Location_masked": "(42.3821707, -71.11540276)",
        "Latitude_masked": -71.11540276,
        "Longitude_masked": -71.11540276,
        "Neighborhood": "Agassiz"
    },
    {
        "Dog_Name": "Sophie",
        "Dog_Breed": "Whippet Mix",
        "Location_masked": "(42.37749697, -71.10957069)",
        "Latitude_masked": -71.10957069,
        "Longitude_masked": -71.10957069,
        "Neighborhood": "Agassiz"
    },
    {
        "Dog_Name": "Annie",
        "Dog_Breed": "Pug",
        "Location_masked": "(42.36610253, -71.11121189)",
        "Latitude_masked": -71.11121189,
        "Longitude_masked": -71.11121189,
        "Neighborhood": "Riverside"
    },
    {
        "Dog_Name": "Franklin",
        "Dog_Breed": "French Buldog",
        "Location_masked": "(42.36227838, -71.10257005)",
        "Latitude_masked": -71.10257005,
        "Longitude_masked": -71.10257005,
        "Neighborhood": "Cambridgeport"
    },
    {
        "Dog_Name": "Star",
        "Dog_Breed": "Min Poodle",
        "Location_masked": "(42.39584167, -71.13718222)",
        "Latitude_masked": -71.13718222,
        "Longitude_masked": -71.13718222,
        "Neighborhood": "North Cambridge"
    },
    {
        "Dog_Name": "Chica Maria",
        "Dog_Breed": "English Labrador",
        "Location_masked": "(42.35861948, -71.1093481)",
        "Latitude_masked": -71.1093481,
        "Longitude_masked": -71.1093481,
        "Neighborhood": "Cambridgeport"
    },
    {
        "Dog_Name": "Gloria",
        "Dog_Breed": "West Highland White Terrier",
        "Location_masked": "(42.38303805, -71.13366976)",
        "Latitude_masked": -71.13366976,
        "Longitude_masked": -71.13366976,
        "Neighborhood": "West Cambridge"
    },
    {
        "Dog_Name": "Albee",
        "Dog_Breed": "Pointer",
        "Location_masked": "(42.36687901, -71.10988736)",
        "Latitude_masked": -71.10988736,
        "Longitude_masked": -71.10988736,
        "Neighborhood": "Riverside"
    },
    {
        "Dog_Name": "Lola",
        "Dog_Breed": "Cavalier King Charles Spaniel",
        "Location_masked": "(42.36856255, -71.07542669)",
        "Latitude_masked": -71.07542669,
        "Longitude_masked": -71.07542669,
        "Neighborhood": "East Cambridge"
    },
    {
        "Dog_Name": "Roxy",
        "Dog_Breed": "Yorksire Terrier",
        "Location_masked": "(42.36910468, -71.10299805)",
        "Latitude_masked": -71.10299805,
        "Longitude_masked": -71.10299805,
        "Neighborhood": "Mid-Cambridge"
    },
    {
        "Dog_Name": "Ollie",
        "Dog_Breed": "Cavalier King Charles Spaniel",
        "Location_masked": "(42.39351461, -71.14530861)",
        "Latitude_masked": -71.14530861,
        "Longitude_masked": -71.14530861,
        "Neighborhood": "Cambridge Highlands"
    },
    {
        "Dog_Name": "Callie",
        "Dog_Breed": "Beagle",
        "Location_masked": "(42.37242507, -71.10288176)",
        "Latitude_masked": -71.10288176,
        "Longitude_masked": -71.10288176,
        "Neighborhood": "Mid-Cambridge"
    },
    {
        "Dog_Name": "Remy",
        "Dog_Breed": "Bichon Frise",
        "Location_masked": "(42.37599055, -71.12898843)",
        "Latitude_masked": -71.12898843,
        "Longitude_masked": -71.12898843,
        "Neighborhood": "West Cambridge"
    },
    {
        "Dog_Name": "Lily",
        "Dog_Breed": "Labrador Retriever",
        "Location_masked": "(42.38040678, -71.12767025)",
        "Latitude_masked": -71.12767025,
        "Longitude_masked": -71.12767025,
        "Neighborhood": "West Cambridge"
    },
    {
        "Dog_Name": "Mica",
        "Dog_Breed": "Yorkshire Terrier",
        "Location_masked": "(42.36287422, -71.08236271)",
        "Latitude_masked": -71.08236271,
        "Longitude_masked": -71.08236271,
        "Neighborhood": "East Cambridge"
    },
    {
        "Dog_Name": "Bella",
        "Dog_Breed": "Maltese",
        "Location_masked": "(42.35512242, -71.10754444)",
        "Latitude_masked": -71.10754444,
        "Longitude_masked": -71.10754444,
        "Neighborhood": "Cambridgeport"
    },
    {
        "Dog_Name": "Summer",
        "Dog_Breed": "Labrador Retriever",
        "Location_masked": "(42.36506817, -71.10268179)",
        "Latitude_masked": -71.10268179,
        "Longitude_masked": -71.10268179,
        "Neighborhood": "Cambridgeport"
    },
    {
        "Dog_Name": "Willow",
        "Dog_Breed": "Labrador Retriever",
        "Location_masked": "(42.37117757, -71.10899906)",
        "Latitude_masked": -71.10899906,
        "Longitude_masked": -71.10899906,
        "Neighborhood": "Mid-Cambridge"
    },
    {
        "Dog_Name": "Penny",
        "Dog_Breed": "Bichon Frise",
        "Location_masked": "(42.37464074, -71.08210702)",
        "Latitude_masked": -71.08210702,
        "Longitude_masked": -71.08210702,
        "Neighborhood": "East Cambridge"
    },
    {
        "Dog_Name": "Nino",
        "Dog_Breed": "Toy Poodle",
        "Location_masked": "(42.3572861, -71.10632162)",
        "Latitude_masked": -71.10632162,
        "Longitude_masked": -71.10632162,
        "Neighborhood": "Cambridgeport"
    },
    {
        "Dog_Name": "Tucker Worth",
        "Dog_Breed": "LABRADOR Retriever",
        "Location_masked": "(42.36927257, -71.09314376)",
        "Latitude_masked": -71.09314376,
        "Longitude_masked": -71.09314376,
        "Neighborhood": "Wellington-Harrington"
    },
    {
        "Dog_Name": "Sukey",
        "Dog_Breed": "LABRADOR Retriever",
        "Location_masked": "(42.37795587, -71.13154448)",
        "Latitude_masked": -71.13154448,
        "Longitude_masked": -71.13154448,
        "Neighborhood": "West Cambridge"
    },
    {
        "Dog_Name": "Sonny",
        "Dog_Breed": "Chihuahua",
        "Location_masked": "(42.39490687, -71.13438545)",
        "Latitude_masked": -71.13438545,
        "Longitude_masked": -71.13438545,
        "Neighborhood": "North Cambridge"
    },
    {
        "Dog_Name": "Maggie Rose",
        "Dog_Breed": "Golden Retriever",
        "Location_masked": "(42.37316412, -71.12757545)",
        "Latitude_masked": -71.12757545,
        "Longitude_masked": -71.12757545,
        "Neighborhood": "West Cambridge"
    },
    {
        "Dog_Name": "Shelby",
        "Dog_Breed": "German Shepherd",
        "Location_masked": "(42.37834998, -71.12871428)",
        "Latitude_masked": -71.12871428,
        "Longitude_masked": -71.12871428,
        "Neighborhood": "West Cambridge"
    },
    {
        "Dog_Name": "Lil Bit",
        "Dog_Breed": "Boxer",
        "Location_masked": "(42.38603176, -71.13318739)",
        "Latitude_masked": -71.13318739,
        "Longitude_masked": -71.13318739,
        "Neighborhood": "Neighborhood Nine"
    },
    {
        "Dog_Name": "Willow",
        "Dog_Breed": "Standard Poodle",
        "Location_masked": "(42.38674963, -71.13515847)",
        "Latitude_masked": -71.13515847,
        "Longitude_masked": -71.13515847,
        "Neighborhood": "Neighborhood Nine"
    },
    {
        "Dog_Name": "Dharmaja",
        "Dog_Breed": "Labrador Retriever",
        "Location_masked": "(42.39543357, -71.12947381)",
        "Latitude_masked": -71.12947381,
        "Longitude_masked": -71.12947381,
        "Neighborhood": "North Cambridge"
    },
    {
        "Dog_Name": "Sasha",
        "Dog_Breed": "Jack Russell Terrier Mix",
        "Location_masked": "(42.3683314, -71.09798012)",
        "Latitude_masked": -71.09798012,
        "Longitude_masked": -71.09798012,
        "Neighborhood": "The Port"
    },
    {
        "Dog_Name": "Smoky",
        "Dog_Breed": "German Shepherd",
        "Location_masked": "(42.39304375, -71.1558526)",
        "Latitude_masked": -71.1558526,
        "Longitude_masked": -71.1558526,
        "Neighborhood": "Cambridge Highlands"
    },
    {
        "Dog_Name": "Spenser",
        "Dog_Breed": "Labrador Retriever",
        "Location_masked": "(42.38170994, -71.14178666)",
        "Latitude_masked": -71.14178666,
        "Longitude_masked": -71.14178666,
        "Neighborhood": "West Cambridge"
    },
    {
        "Dog_Name": "Trixie",
        "Dog_Breed": "Cavachon",
        "Location_masked": "(42.39835671, -71.13470388)",
        "Latitude_masked": -71.13470388,
        "Longitude_masked": -71.13470388,
        "Neighborhood": "North Cambridge"
    },
    {
        "Dog_Name": "Penelope",
        "Dog_Breed": "Labrador Retriever",
        "Location_masked": "(42.37613811, -71.1308208)",
        "Latitude_masked": -71.1308208,
        "Longitude_masked": -71.1308208,
        "Neighborhood": "West Cambridge"
    },
    {
        "Dog_Name": "Anubis",
        "Dog_Breed": "Poodle",
        "Location_masked": "(42.39918135, -71.1323078)",
        "Latitude_masked": -71.1323078,
        "Longitude_masked": -71.1323078,
        "Neighborhood": "North Cambridge"
    },
    {
        "Dog_Name": "Cadence",
        "Dog_Breed": "German Shepherd Mix",
        "Location_masked": "(42.39411274, -71.12871831)",
        "Latitude_masked": -71.12871831,
        "Longitude_masked": -71.12871831,
        "Neighborhood": "North Cambridge"
    },
    {
        "Dog_Name": "Hugo",
        "Dog_Breed": "Boxer",
        "Location_masked": "(42.38156934, -71.15097351)",
        "Latitude_masked": -71.15097351,
        "Longitude_masked": -71.15097351,
        "Neighborhood": "Strawberry Hill"
    },
    {
        "Dog_Name": "Jake",
        "Dog_Breed": "Lab Mix",
        "Location_masked": "(42.38150542, -71.13355545)",
        "Latitude_masked": -71.13355545,
        "Longitude_masked": -71.13355545,
        "Neighborhood": "West Cambridge"
    },
    {
        "Dog_Name": "Doobs",
        "Dog_Breed": "Labrador Retriever",
        "Location_masked": "(42.38814435, -71.14565642)",
        "Latitude_masked": -71.14565642,
        "Longitude_masked": -71.14565642,
        "Neighborhood": "Cambridge Highlands"
    },
    {
        "Dog_Name": "Meli",
        "Dog_Breed": "Kelpie",
        "Location_masked": "(42.39323043, -71.14506318)",
        "Latitude_masked": -71.14506318,
        "Longitude_masked": -71.14506318,
        "Neighborhood": "Cambridge Highlands"
    },
    {
        "Dog_Name": "Izzy",
        "Dog_Breed": "Terrier",
        "Location_masked": "(42.37898413, -71.13603713)",
        "Latitude_masked": -71.13603713,
        "Longitude_masked": -71.13603713,
        "Neighborhood": "West Cambridge"
    },
    {
        "Dog_Name": "Riven",
        "Dog_Breed": "Chihuahua",
        "Location_masked": "(42.3634574, -71.10882548)",
        "Latitude_masked": -71.10882548,
        "Longitude_masked": -71.10882548,
        "Neighborhood": "Cambridgeport"
    },
    {
        "Dog_Name": "Dexter",
        "Dog_Breed": "OLDE ENGLISH BULLDOG",
        "Location_masked": "(42.36587355, -71.08477516)",
        "Latitude_masked": -71.08477516,
        "Longitude_masked": -71.08477516,
        "Neighborhood": "East Cambridge"
    },
    {
        "Dog_Name": "Lillie",
        "Dog_Breed": "Beagle",
        "Location_masked": "(42.38110143, -71.1085241)",
        "Latitude_masked": -71.1085241,
        "Longitude_masked": -71.1085241,
        "Neighborhood": "Agassiz"
    },
    {
        "Dog_Name": "Rusty",
        "Dog_Breed": "Long Hair Dachshund",
        "Location_masked": "(42.39181343, -71.14743756)",
        "Latitude_masked": -71.14743756,
        "Longitude_masked": -71.14743756,
        "Neighborhood": "Cambridge Highlands"
    },
    {
        "Dog_Name": "Mr. Gus",
        "Dog_Breed": "BOSTON TERRIER",
        "Location_masked": "(42.37233608, -71.08456741)",
        "Latitude_masked": -71.08456741,
        "Longitude_masked": -71.08456741,
        "Neighborhood": "East Cambridge"
    },
    {
        "Dog_Name": "Moxie",
        "Dog_Breed": "Labrador Retriever Mix",
        "Location_masked": "(42.35989901, -71.11145432)",
        "Latitude_masked": -71.11145432,
        "Longitude_masked": -71.11145432,
        "Neighborhood": "Cambridgeport"
    },
    {
        "Dog_Name": "Niche",
        "Dog_Breed": "Pug",
        "Location_masked": "(42.37099332, -71.11728567)",
        "Latitude_masked": -71.11728567,
        "Longitude_masked": -71.11728567,
        "Neighborhood": "Riverside"
    },
    {
        "Dog_Name": "Gracie",
        "Dog_Breed": "Labrador Retriever",
        "Location_masked": "(42.37408279, -71.10005497)",
        "Latitude_masked": -71.10005497,
        "Longitude_masked": -71.10005497,
        "Neighborhood": "Mid-Cambridge"
    },
    {
        "Dog_Name": "Chloe",
        "Dog_Breed": "Border Collie",
        "Location_masked": "(42.36947345, -71.10684072)",
        "Latitude_masked": -71.10684072,
        "Longitude_masked": -71.10684072,
        "Neighborhood": "Mid-Cambridge"
    },
    {
        "Dog_Name": "Rocky",
        "Dog_Breed": "Bichon Frise",
        "Location_masked": "(42.37313158, -71.1315578)",
        "Latitude_masked": -71.1315578,
        "Longitude_masked": -71.1315578,
        "Neighborhood": "West Cambridge"
    },
    {
        "Dog_Name": "Zoey",
        "Dog_Breed": "West Highland White Terrier",
        "Location_masked": "(42.39819372, -71.1502885)",
        "Latitude_masked": -71.1502885,
        "Longitude_masked": -71.1502885,
        "Neighborhood": "North Cambridge"
    },
    {
        "Dog_Name": "Maya",
        "Dog_Breed": "Sheltie Mix",
        "Location_masked": "(42.37921904, -71.1188685)",
        "Latitude_masked": -71.1188685,
        "Longitude_masked": -71.1188685,
        "Neighborhood": "Neighborhood Nine"
    },
    {
        "Dog_Name": "Louie",
        "Dog_Breed": "Yorkshire Terrier",
        "Location_masked": "(42.36706556, -71.09929601)",
        "Latitude_masked": -71.09929601,
        "Longitude_masked": -71.09929601,
        "Neighborhood": "The Port"
    },
    {
        "Dog_Name": "Widget",
        "Dog_Breed": "Entlebucher",
        "Location_masked": "(42.37052438, -71.11305743)",
        "Latitude_masked": -71.11305743,
        "Longitude_masked": -71.11305743,
        "Neighborhood": "Riverside"
    },
    {
        "Dog_Name": "Bear",
        "Dog_Breed": "Chihuahua",
        "Location_masked": "(42.36689407, -71.10612402)",
        "Latitude_masked": -71.10612402,
        "Longitude_masked": -71.10612402,
        "Neighborhood": "Mid-Cambridge"
    },
    {
        "Dog_Name": "Penzey",
        "Dog_Breed": "Golden Retriever",
        "Location_masked": "(42.38395098, -71.13520196)",
        "Latitude_masked": -71.13520196,
        "Longitude_masked": -71.13520196,
        "Neighborhood": "Neighborhood Nine"
    },
    {
        "Dog_Name": "Taco",
        "Dog_Breed": "Cocker Spaniel",
        "Location_masked": "(42.3962881, -71.12543277)",
        "Latitude_masked": -71.12543277,
        "Longitude_masked": -71.12543277,
        "Neighborhood": "North Cambridge"
    },
    {
        "Dog_Name": "Tomato",
        "Dog_Breed": "Corgi",
        "Location_masked": "(42.39347318, -71.14781118)",
        "Latitude_masked": -71.14781118,
        "Longitude_masked": -71.14781118,
        "Neighborhood": "North Cambridge"
    },
    {
        "Dog_Name": "Murphy",
        "Dog_Breed": "Golden Retriever",
        "Location_masked": "(42.37417723, -71.10355314)",
        "Latitude_masked": -71.10355314,
        "Longitude_masked": -71.10355314,
        "Neighborhood": "Mid-Cambridge"
    },
    {
        "Dog_Name": "Mochi",
        "Dog_Breed": "French Bulldog",
        "Location_masked": "(42.3885041, -71.12192867)",
        "Latitude_masked": -71.12192867,
        "Longitude_masked": -71.12192867,
        "Neighborhood": "North Cambridge"
    },
    {
        "Dog_Name": "Maximus",
        "Dog_Breed": "Lab Shepherd Mix",
        "Location_masked": "(42.40215451, -71.1511923)",
        "Latitude_masked": -71.1511923,
        "Longitude_masked": -71.1511923,
        "Neighborhood": "North Cambridge"
    },
    {
        "Dog_Name": "Pastis",
        "Dog_Breed": "Miniature Poodle",
        "Location_masked": "(42.36267491, -71.10158512)",
        "Latitude_masked": -71.10158512,
        "Longitude_masked": -71.10158512,
        "Neighborhood": "Cambridgeport"
    },
    {
        "Dog_Name": "Xena",
        "Dog_Breed": "Labrador Retriever",
        "Location_masked": "(42.378544, -71.13512056)",
        "Latitude_masked": -71.13512056,
        "Longitude_masked": -71.13512056,
        "Neighborhood": "West Cambridge"
    },
    {
        "Dog_Name": "Shadow",
        "Dog_Breed": "Labrador Retriever",
        "Location_masked": "(42.36762426, -71.11070122)",
        "Latitude_masked": -71.11070122,
        "Longitude_masked": -71.11070122,
        "Neighborhood": "Mid-Cambridge"
    },
    {
        "Dog_Name": "Banjo",
        "Dog_Breed": "Chihuahua Mix",
        "Location_masked": "(42.39428079, -71.13022075)",
        "Latitude_masked": -71.13022075,
        "Longitude_masked": -71.13022075,
        "Neighborhood": "North Cambridge"
    },
    {
        "Dog_Name": "Dakota",
        "Dog_Breed": "Portuguese Water Dog",
        "Location_masked": "(42.36620057, -71.11354768)",
        "Latitude_masked": -71.11354768,
        "Longitude_masked": -71.11354768,
        "Neighborhood": "Riverside"
    },
    {
        "Dog_Name": "Lola",
        "Dog_Breed": "Chihuahua Mix",
        "Location_masked": "(42.38978314, -71.12595293)",
        "Latitude_masked": -71.12595293,
        "Longitude_masked": -71.12595293,
        "Neighborhood": "Neighborhood Nine"
    },
    {
        "Dog_Name": "Maple",
        "Dog_Breed": "Miniature Pincher",
        "Location_masked": "(42.39344266, -71.14691021)",
        "Latitude_masked": -71.14691021,
        "Longitude_masked": -71.14691021,
        "Neighborhood": "Cambridge Highlands"
    },
    {
        "Dog_Name": "Tucker",
        "Dog_Breed": "Golden Retriever",
        "Location_masked": "(42.40075765, -71.13440458)",
        "Latitude_masked": -71.13440458,
        "Longitude_masked": -71.13440458,
        "Neighborhood": "North Cambridge"
    },
    {
        "Dog_Name": "Sadie",
        "Dog_Breed": "American English Coonhound",
        "Location_masked": "(42.36035182, -71.10024007)",
        "Latitude_masked": -71.10024007,
        "Longitude_masked": -71.10024007,
        "Neighborhood": "Cambridgeport"
    },
    {
        "Dog_Name": "Lilly Messina",
        "Dog_Breed": "Boxer Mix",
        "Location_masked": "(42.3741866, -71.07853409)",
        "Latitude_masked": -71.07853409,
        "Longitude_masked": -71.07853409,
        "Neighborhood": "East Cambridge"
    },
    {
        "Dog_Name": "Coco",
        "Dog_Breed": "Maltese",
        "Location_masked": "(42.37059286, -71.09451398)",
        "Latitude_masked": -71.09451398,
        "Longitude_masked": -71.09451398,
        "Neighborhood": "The Port"
    },
    {
        "Dog_Name": "Bonnie",
        "Dog_Breed": "Chihuahua",
        "Location_masked": "(42.39315833, -71.13726941)",
        "Latitude_masked": -71.13726941,
        "Longitude_masked": -71.13726941,
        "Neighborhood": "North Cambridge"
    },
    {
        "Dog_Name": "Kobe",
        "Dog_Breed": "Pit Bull",
        "Location_masked": "(42.36197097, -71.10892049)",
        "Latitude_masked": -71.10892049,
        "Longitude_masked": -71.10892049,
        "Neighborhood": "Cambridgeport"
    },
    {
        "Dog_Name": "Bella",
        "Dog_Breed": "Maltese",
        "Location_masked": "(42.36790756, -71.09705059)",
        "Latitude_masked": -71.09705059,
        "Longitude_masked": -71.09705059,
        "Neighborhood": "The Port"
    },
    {
        "Dog_Name": "Caliban",
        "Dog_Breed": "Bearded Collie",
        "Location_masked": "(42.38813449, -71.12898418)",
        "Latitude_masked": -71.12898418,
        "Longitude_masked": -71.12898418,
        "Neighborhood": "Neighborhood Nine"
    },
    {
        "Dog_Name": "Thelma",
        "Dog_Breed": "Portuguese Water Dog",
        "Location_masked": "(42.39238247, -71.13175963)",
        "Latitude_masked": -71.13175963,
        "Longitude_masked": -71.13175963,
        "Neighborhood": "North Cambridge"
    },
    {
        "Dog_Name": "Reggie",
        "Dog_Breed": "American Staffordshire Terrier",
        "Location_masked": "(42.36925653, -71.09483097)",
        "Latitude_masked": -71.09483097,
        "Longitude_masked": -71.09483097,
        "Neighborhood": "Wellington-Harrington"
    },
    {
        "Dog_Name": "Princess",
        "Dog_Breed": "Pomerainian",
        "Location_masked": "(42.40064871, -71.13363629)",
        "Latitude_masked": -71.13363629,
        "Longitude_masked": -71.13363629,
        "Neighborhood": "North Cambridge"
    },
    {
        "Dog_Name": "Samson",
        "Dog_Breed": "Coton De Tulear",
        "Location_masked": "(42.37850902, -71.13410925)",
        "Latitude_masked": -71.13410925,
        "Longitude_masked": -71.13410925,
        "Neighborhood": "West Cambridge"
    },
    {
        "Dog_Name": "Lexi",
        "Dog_Breed": "Labrador Retriever",
        "Location_masked": "(42.39009861, -71.12056532)",
        "Latitude_masked": -71.12056532,
        "Longitude_masked": -71.12056532,
        "Neighborhood": "North Cambridge"
    },
    {
        "Dog_Name": "Cosmo",
        "Dog_Breed": "Chihuahua",
        "Location_masked": "(42.36362945, -71.09498617)",
        "Latitude_masked": -71.09498617,
        "Longitude_masked": -71.09498617,
        "Neighborhood": "The Port"
    },
    {
        "Dog_Name": "Lola",
        "Dog_Breed": "Australian Shepherd",
        "Location_masked": "(42.38134305, -71.12152128)",
        "Latitude_masked": -71.12152128,
        "Longitude_masked": -71.12152128,
        "Neighborhood": "Neighborhood Nine"
    },
    {
        "Dog_Name": "Zoe",
        "Dog_Breed": "Puggle",
        "Location_masked": "(42.36745968, -71.07876421)",
        "Latitude_masked": -71.07876421,
        "Longitude_masked": -71.07876421,
        "Neighborhood": "East Cambridge"
    },
    {
        "Dog_Name": "Gummi Bear",
        "Dog_Breed": "Cockerpoo",
        "Location_masked": "(42.37433099, -71.1488884)",
        "Latitude_masked": -71.1488884,
        "Longitude_masked": -71.1488884,
        "Neighborhood": "Strawberry Hill"
    },
    {
        "Dog_Name": "Clyde",
        "Dog_Breed": "Miniature Pinscher",
        "Location_masked": "(42.37557878, -71.12328018)",
        "Latitude_masked": -71.12328018,
        "Longitude_masked": -71.12328018,
        "Neighborhood": "West Cambridge"
    },
    {
        "Dog_Name": "Keiko",
        "Dog_Breed": "Australian Shepherd",
        "Location_masked": "(42.39002291, -71.12422265)",
        "Latitude_masked": -71.12422265,
        "Longitude_masked": -71.12422265,
        "Neighborhood": "North Cambridge"
    },
    {
        "Dog_Name": "Deacon",
        "Dog_Breed": "English Springer Spaniel",
        "Location_masked": "(42.40061445, -71.14045965)",
        "Latitude_masked": -71.14045965,
        "Longitude_masked": -71.14045965,
        "Neighborhood": "North Cambridge"
    },
    {
        "Dog_Name": "Tucker",
        "Dog_Breed": "Labrador Retriever",
        "Location_masked": "(42.39373015, -71.13381209)",
        "Latitude_masked": -71.13381209,
        "Longitude_masked": -71.13381209,
        "Neighborhood": "North Cambridge"
    },
    {
        "Dog_Name": "Lulah",
        "Dog_Breed": "Toy Poodle",
        "Location_masked": "(42.36769422, -71.09542452)",
        "Latitude_masked": -71.09542452,
        "Longitude_masked": -71.09542452,
        "Neighborhood": "Wellington-Harrington"
    },
    {
        "Dog_Name": "Jackson",
        "Dog_Breed": "Australian Cattle Dog",
        "Location_masked": "(42.38313466, -71.11523638)",
        "Latitude_masked": -71.11523638,
        "Longitude_masked": -71.11523638,
        "Neighborhood": "Agassiz"
    },
    {
        "Dog_Name": "Esme",
        "Dog_Breed": "Pointer",
        "Location_masked": "(42.36844521, -71.09648381)",
        "Latitude_masked": -71.09648381,
        "Longitude_masked": -71.09648381,
        "Neighborhood": "The Port"
    },
    {
        "Dog_Name": "Cannoli",
        "Dog_Breed": "Hound Mix",
        "Location_masked": "(42.37989397, -71.15139428)",
        "Latitude_masked": -71.15139428,
        "Longitude_masked": -71.15139428,
        "Neighborhood": "Strawberry Hill"
    },
    {
        "Dog_Name": "Moses",
        "Dog_Breed": "Labrador Retriever",
        "Location_masked": "(42.3970832, -71.13530121)",
        "Latitude_masked": -71.13530121,
        "Longitude_masked": -71.13530121,
        "Neighborhood": "North Cambridge"
    },
    {
        "Dog_Name": "Scout",
        "Dog_Breed": "Beagle",
        "Location_masked": "(42.39064812, -71.12343997)",
        "Latitude_masked": -71.12343997,
        "Longitude_masked": -71.12343997,
        "Neighborhood": "North Cambridge"
    },
    {
        "Dog_Name": "Nemo",
        "Dog_Breed": "Mix",
        "Location_masked": "(42.374406, -71.14667788)",
        "Latitude_masked": -71.14667788,
        "Longitude_masked": -71.14667788,
        "Neighborhood": "West Cambridge"
    },
    {
        "Dog_Name": "Mae",
        "Dog_Breed": "Parson Russell Terrier",
        "Location_masked": "(42.38586515, -71.11590998)",
        "Latitude_masked": -71.11590998,
        "Longitude_masked": -71.11590998,
        "Neighborhood": "Agassiz"
    },
    {
        "Dog_Name": "Bodo",
        "Dog_Breed": "Rat Terrier",
        "Location_masked": "(42.37483546, -71.14992165)",
        "Latitude_masked": -71.14992165,
        "Longitude_masked": -71.14992165,
        "Neighborhood": "Strawberry Hill"
    },
    {
        "Dog_Name": "Sona",
        "Dog_Breed": "Pug",
        "Location_masked": "(42.38371516, -71.12854782)",
        "Latitude_masked": -71.12854782,
        "Longitude_masked": -71.12854782,
        "Neighborhood": "Neighborhood Nine"
    },
    {
        "Dog_Name": "Oscar",
        "Dog_Breed": "Chihuahua",
        "Location_masked": "(42.39051108, -71.14523907)",
        "Latitude_masked": -71.14523907,
        "Longitude_masked": -71.14523907,
        "Neighborhood": "Cambridge Highlands"
    },
    {
        "Dog_Name": "Willie Lizzie",
        "Dog_Breed": "Lab Hound Mix",
        "Location_masked": "(42.37564779, -71.09444777)",
        "Latitude_masked": -71.09444777,
        "Longitude_masked": -71.09444777,
        "Neighborhood": "Wellington-Harrington"
    },
    {
        "Dog_Name": "Yumi",
        "Dog_Breed": "Chihuahua Mix",
        "Location_masked": "(42.36688809, -71.1114359)",
        "Latitude_masked": -71.1114359,
        "Longitude_masked": -71.1114359,
        "Neighborhood": "Riverside"
    },
    {
        "Dog_Name": "Zoe",
        "Dog_Breed": "Collie Mix",
        "Location_masked": "(42.39779713, -71.12730624)",
        "Latitude_masked": -71.12730624,
        "Longitude_masked": -71.12730624,
        "Neighborhood": "North Cambridge"
    },
    {
        "Dog_Name": "Olive",
        "Dog_Breed": "Mix",
        "Location_masked": "(42.36923153, -71.09368677)",
        "Latitude_masked": -71.09368677,
        "Longitude_masked": -71.09368677,
        "Neighborhood": "The Port"
    },
    {
        "Dog_Name": "Lucy",
        "Dog_Breed": "Labrador Retriever",
        "Location_masked": "(42.37847926, -71.13655474)",
        "Latitude_masked": -71.13655474,
        "Longitude_masked": -71.13655474,
        "Neighborhood": "West Cambridge"
    },
    {
        "Dog_Name": "Gussy",
        "Dog_Breed": "Boxer",
        "Location_masked": "(42.37648812, -71.15518598)",
        "Latitude_masked": -71.15518598,
        "Longitude_masked": -71.15518598,
        "Neighborhood": "Strawberry Hill"
    },
    {
        "Dog_Name": "Rufus",
        "Dog_Breed": "Brittany Spaniel",
        "Location_masked": "(42.35851123, -71.10973383)",
        "Latitude_masked": -71.10973383,
        "Longitude_masked": -71.10973383,
        "Neighborhood": "Cambridgeport"
    },
    {
        "Dog_Name": "Nico",
        "Dog_Breed": "Spinone",
        "Location_masked": "(42.3707952, -71.10341083)",
        "Latitude_masked": -71.10341083,
        "Longitude_masked": -71.10341083,
        "Neighborhood": "Mid-Cambridge"
    },
    {
        "Dog_Name": "Izzy",
        "Dog_Breed": "Carolina Dog",
        "Location_masked": "(42.36870425, -71.09265369)",
        "Latitude_masked": -71.09265369,
        "Longitude_masked": -71.09265369,
        "Neighborhood": "Wellington-Harrington"
    },
    {
        "Dog_Name": "Lulu",
        "Dog_Breed": "Terrier",
        "Location_masked": "(42.36371595, -71.10462586)",
        "Latitude_masked": -71.10462586,
        "Longitude_masked": -71.10462586,
        "Neighborhood": "Cambridgeport"
    },
    {
        "Dog_Name": "Calliope",
        "Dog_Breed": "Whippet",
        "Location_masked": "(42.36442031, -71.11433504)",
        "Latitude_masked": -71.11433504,
        "Longitude_masked": -71.11433504,
        "Neighborhood": "Riverside"
    },
    {
        "Dog_Name": "Ruthie",
        "Dog_Breed": "Blue Heeler Mix",
        "Location_masked": "(42.39642107, -71.13673445)",
        "Latitude_masked": -71.13673445,
        "Longitude_masked": -71.13673445,
        "Neighborhood": "North Cambridge"
    },
    {
        "Dog_Name": "Tucker",
        "Dog_Breed": "Golden Retriever",
        "Location_masked": "(42.38421487, -71.13122931)",
        "Latitude_masked": -71.13122931,
        "Longitude_masked": -71.13122931,
        "Neighborhood": "Neighborhood Nine"
    },
    {
        "Dog_Name": "Jango",
        "Dog_Breed": "German Shepherd Mix",
        "Location_masked": "(42.39396091, -71.12341134)",
        "Latitude_masked": -71.12341134,
        "Longitude_masked": -71.12341134,
        "Neighborhood": null
    },
    {
        "Dog_Name": "Twyla",
        "Dog_Breed": "Poddle Mix",
        "Location_masked": "(42.36910236, -71.08225655)",
        "Latitude_masked": -71.08225655,
        "Longitude_masked": -71.08225655,
        "Neighborhood": "East Cambridge"
    },
    {
        "Dog_Name": "Zoe",
        "Dog_Breed": "Labrador Retriever",
        "Location_masked": "(42.35914331, -71.11208265)",
        "Latitude_masked": -71.11208265,
        "Longitude_masked": -71.11208265,
        "Neighborhood": "Cambridgeport"
    },
    {
        "Dog_Name": "Oliver",
        "Dog_Breed": "Hound Mix",
        "Location_masked": "(42.39632346, -71.12922483)",
        "Latitude_masked": -71.12922483,
        "Longitude_masked": -71.12922483,
        "Neighborhood": "North Cambridge"
    },
    {
        "Dog_Name": "Lani",
        "Dog_Breed": "Golden Retriever",
        "Location_masked": "(42.36635765, -71.11224076)",
        "Latitude_masked": -71.11224076,
        "Longitude_masked": -71.11224076,
        "Neighborhood": "Riverside"
    },
    {
        "Dog_Name": "Charlie",
        "Dog_Breed": "Papillion Mix",
        "Location_masked": "(42.37486419, -71.10368138)",
        "Latitude_masked": -71.10368138,
        "Longitude_masked": -71.10368138,
        "Neighborhood": "Mid-Cambridge"
    },
    {
        "Dog_Name": "Logan",
        "Dog_Breed": "Lab Ret Mix",
        "Location_masked": "(42.37415123, -71.07761194)",
        "Latitude_masked": -71.07761194,
        "Longitude_masked": -71.07761194,
        "Neighborhood": "East Cambridge"
    },
    {
        "Dog_Name": "Hilo",
        "Dog_Breed": "Poodle",
        "Location_masked": "(42.38721288, -71.12359135)",
        "Latitude_masked": -71.12359135,
        "Longitude_masked": -71.12359135,
        "Neighborhood": "Neighborhood Nine"
    },
    {
        "Dog_Name": "Polo",
        "Dog_Breed": "Cairn Terrier",
        "Location_masked": "(42.39556572, -71.14572379)",
        "Latitude_masked": -71.14572379,
        "Longitude_masked": -71.14572379,
        "Neighborhood": "North Cambridge"
    },
    {
        "Dog_Name": "Isabel",
        "Dog_Breed": "Shiba Inu",
        "Location_masked": "(42.37206436, -71.07947085)",
        "Latitude_masked": -71.07947085,
        "Longitude_masked": -71.07947085,
        "Neighborhood": "East Cambridge"
    },
    {
        "Dog_Name": "Emma",
        "Dog_Breed": "Border Terrier",
        "Location_masked": "(42.37035307, -71.08618453)",
        "Latitude_masked": -71.08618453,
        "Longitude_masked": -71.08618453,
        "Neighborhood": "East Cambridge"
    },
    {
        "Dog_Name": "Sandy",
        "Dog_Breed": "Shih Tzu",
        "Location_masked": "(42.38079738, -71.14377484)",
        "Latitude_masked": -71.14377484,
        "Longitude_masked": -71.14377484,
        "Neighborhood": "West Cambridge"
    },
    {
        "Dog_Name": "Lani Kai",
        "Dog_Breed": "Wheaton Terrier",
        "Location_masked": "(42.36965217, -71.10224805)",
        "Latitude_masked": -71.10224805,
        "Longitude_masked": -71.10224805,
        "Neighborhood": "Mid-Cambridge"
    },
    {
        "Dog_Name": "Yuki",
        "Dog_Breed": "Labrador Retriever",
        "Location_masked": "(42.38782488, -71.12829235)",
        "Latitude_masked": -71.12829235,
        "Longitude_masked": -71.12829235,
        "Neighborhood": "Neighborhood Nine"
    },
    {
        "Dog_Name": "Neo",
        "Dog_Breed": "Shetland Sheepdog",
        "Location_masked": "(42.39419723, -71.14619589)",
        "Latitude_masked": -71.14619589,
        "Longitude_masked": -71.14619589,
        "Neighborhood": "Cambridge Highlands"
    },
    {
        "Dog_Name": "Marlowe",
        "Dog_Breed": "Hound Mix",
        "Location_masked": "(42.39330621, -71.14759436)",
        "Latitude_masked": -71.14759436,
        "Longitude_masked": -71.14759436,
        "Neighborhood": "North Cambridge"
    },
    {
        "Dog_Name": "Ginger",
        "Dog_Breed": "Wheaton Terrier",
        "Location_masked": "(42.38662329, -71.12847647)",
        "Latitude_masked": -71.12847647,
        "Longitude_masked": -71.12847647,
        "Neighborhood": "Neighborhood Nine"
    },
    {
        "Dog_Name": "Dixie",
        "Dog_Breed": "Golden Retriever",
        "Location_masked": "(42.38784642, -71.12896727)",
        "Latitude_masked": -71.12896727,
        "Longitude_masked": -71.12896727,
        "Neighborhood": "Neighborhood Nine"
    },
    {
        "Dog_Name": "Tjapo",
        "Dog_Breed": "Golden Retriever",
        "Location_masked": "(42.3708184, -71.1060217)",
        "Latitude_masked": -71.1060217,
        "Longitude_masked": -71.1060217,
        "Neighborhood": "Mid-Cambridge"
    },
    {
        "Dog_Name": "Missy",
        "Dog_Breed": "MINIATURE POODLE",
        "Location_masked": "(42.37389191, -71.1321872)",
        "Latitude_masked": -71.1321872,
        "Longitude_masked": -71.1321872,
        "Neighborhood": "West Cambridge"
    },
    {
        "Dog_Name": "Rosie",
        "Dog_Breed": "Shih Tzu",
        "Location_masked": "(42.36910081, -71.10022852)",
        "Latitude_masked": -71.10022852,
        "Longitude_masked": -71.10022852,
        "Neighborhood": "The Port"
    },
    {
        "Dog_Name": "Myles",
        "Dog_Breed": "Coonhound - American Black & Tan",
        "Location_masked": "(42.38758507, -71.12837271)",
        "Latitude_masked": -71.12837271,
        "Longitude_masked": -71.12837271,
        "Neighborhood": "Neighborhood Nine"
    },
    {
        "Dog_Name": "Henderson",
        "Dog_Breed": "Labrador Retriever",
        "Location_masked": "(42.36024199, -71.10701657)",
        "Latitude_masked": -71.10701657,
        "Longitude_masked": -71.10701657,
        "Neighborhood": "Cambridgeport"
    },
    {
        "Dog_Name": "Ella",
        "Dog_Breed": "Japanese Chin",
        "Location_masked": "(42.37278774, -71.0970213)",
        "Latitude_masked": -71.0970213,
        "Longitude_masked": -71.0970213,
        "Neighborhood": "Wellington-Harrington"
    },
    {
        "Dog_Name": "Angel",
        "Dog_Breed": "Terrier Mix",
        "Location_masked": "(42.38355544, -71.12038624)",
        "Latitude_masked": -71.12038624,
        "Longitude_masked": -71.12038624,
        "Neighborhood": "Neighborhood Nine"
    },
    {
        "Dog_Name": "Etta",
        "Dog_Breed": "Hound",
        "Location_masked": "(42.36602112, -71.10498792)",
        "Latitude_masked": -71.10498792,
        "Longitude_masked": -71.10498792,
        "Neighborhood": "Mid-Cambridge"
    },
    {
        "Dog_Name": "Riley",
        "Dog_Breed": "Leonberger",
        "Location_masked": "(42.36936143, -71.10078333)",
        "Latitude_masked": -71.10078333,
        "Longitude_masked": -71.10078333,
        "Neighborhood": "The Port"
    },
    {
        "Dog_Name": "Charlie Blonde",
        "Dog_Breed": "Labrador Retriever",
        "Location_masked": "(42.38911679, -71.12416237)",
        "Latitude_masked": -71.12416237,
        "Longitude_masked": -71.12416237,
        "Neighborhood": "Neighborhood Nine"
    },
    {
        "Dog_Name": "Penelope",
        "Dog_Breed": "Labrador Retriever",
        "Location_masked": "(42.38381842, -71.13780173)",
        "Latitude_masked": -71.13780173,
        "Longitude_masked": -71.13780173,
        "Neighborhood": "Neighborhood Nine"
    },
    {
        "Dog_Name": "Cooper",
        "Dog_Breed": "Golden Retriever",
        "Location_masked": "(42.38214677, -71.13495388)",
        "Latitude_masked": -71.13495388,
        "Longitude_masked": -71.13495388,
        "Neighborhood": "West Cambridge"
    },
    {
        "Dog_Name": "Beba",
        "Dog_Breed": "Pekingese Mix",
        "Location_masked": "(42.35830664, -71.10460495)",
        "Latitude_masked": -71.10460495,
        "Longitude_masked": -71.10460495,
        "Neighborhood": "Cambridgeport"
    },
    {
        "Dog_Name": "Molly",
        "Dog_Breed": "Dachshund",
        "Location_masked": "(42.36587762, -71.10657477)",
        "Latitude_masked": -71.10657477,
        "Longitude_masked": -71.10657477,
        "Neighborhood": "Riverside"
    },
    {
        "Dog_Name": "Maggie",
        "Dog_Breed": "Labrador Retriever",
        "Location_masked": "(42.36178024, -71.10677843)",
        "Latitude_masked": -71.10677843,
        "Longitude_masked": -71.10677843,
        "Neighborhood": "Cambridgeport"
    },
    {
        "Dog_Name": "Leo",
        "Dog_Breed": "Cocker Spaniel",
        "Location_masked": "(42.39091341, -71.15552264)",
        "Latitude_masked": -71.15552264,
        "Longitude_masked": -71.15552264,
        "Neighborhood": "Cambridge Highlands"
    },
    {
        "Dog_Name": "Leelu",
        "Dog_Breed": "Rhodesian Ridgeback",
        "Location_masked": "(42.3898503, -71.1300656)",
        "Latitude_masked": -71.1300656,
        "Longitude_masked": -71.1300656,
        "Neighborhood": "North Cambridge"
    },
    {
        "Dog_Name": "Dreamer",
        "Dog_Breed": "Bernese Mountain Dog",
        "Location_masked": "(42.37496579, -71.12933506)",
        "Latitude_masked": -71.12933506,
        "Longitude_masked": -71.12933506,
        "Neighborhood": "West Cambridge"
    },
    {
        "Dog_Name": "Kelly",
        "Dog_Breed": "Golden Retriever",
        "Location_masked": "(42.37722075, -71.10961037)",
        "Latitude_masked": -71.10961037,
        "Longitude_masked": -71.10961037,
        "Neighborhood": "Mid-Cambridge"
    },
    {
        "Dog_Name": "Winston",
        "Dog_Breed": "Hound",
        "Location_masked": "(42.37395566, -71.10677567)",
        "Latitude_masked": -71.10677567,
        "Longitude_masked": -71.10677567,
        "Neighborhood": "Mid-Cambridge"
    },
    {
        "Dog_Name": "Rojo",
        "Dog_Breed": "Labradoddle",
        "Location_masked": "(42.38544092, -71.11872234)",
        "Latitude_masked": -71.11872234,
        "Longitude_masked": -71.11872234,
        "Neighborhood": "Agassiz"
    },
    {
        "Dog_Name": "Mister Bear",
        "Dog_Breed": "French Bulldog",
        "Location_masked": "(42.38757717, -71.12059254)",
        "Latitude_masked": -71.12059254,
        "Longitude_masked": -71.12059254,
        "Neighborhood": "Neighborhood Nine"
    },
    {
        "Dog_Name": "Artimiss",
        "Dog_Breed": "Maltese Mix",
        "Location_masked": "(42.3635308, -71.10649911)",
        "Latitude_masked": -71.10649911,
        "Longitude_masked": -71.10649911,
        "Neighborhood": "Cambridgeport"
    },
    {
        "Dog_Name": "Birdie",
        "Dog_Breed": "Terrier Mix",
        "Location_masked": "(42.36710551, -71.08089944)",
        "Latitude_masked": -71.08089944,
        "Longitude_masked": -71.08089944,
        "Neighborhood": "East Cambridge"
    },
    {
        "Dog_Name": "Buttercup",
        "Dog_Breed": "BOSTON TERRIER",
        "Location_masked": "(42.37288418, -71.08584352)",
        "Latitude_masked": -71.08584352,
        "Longitude_masked": -71.08584352,
        "Neighborhood": "East Cambridge"
    },
    {
        "Dog_Name": "Oliver",
        "Dog_Breed": "Bassett Hound",
        "Location_masked": "(42.3798431, -71.13191374)",
        "Latitude_masked": -71.13191374,
        "Longitude_masked": -71.13191374,
        "Neighborhood": "West Cambridge"
    },
    {
        "Dog_Name": "Gracie",
        "Dog_Breed": "Labrador Retriever",
        "Location_masked": "(42.37998024, -71.12408107)",
        "Latitude_masked": -71.12408107,
        "Longitude_masked": -71.12408107,
        "Neighborhood": "Neighborhood Nine"
    },
    {
        "Dog_Name": "Chip",
        "Dog_Breed": "Australian Shepherd",
        "Location_masked": "(42.38295165, -71.1395)",
        "Latitude_masked": -71.1395,
        "Longitude_masked": -71.1395,
        "Neighborhood": "West Cambridge"
    },
    {
        "Dog_Name": "Keeva",
        "Dog_Breed": "Labrador Retriever",
        "Location_masked": "(42.40197244, -71.13401977)",
        "Latitude_masked": -71.13401977,
        "Longitude_masked": -71.13401977,
        "Neighborhood": "North Cambridge"
    },
    {
        "Dog_Name": "Puffy",
        "Dog_Breed": "Poodle",
        "Location_masked": "(42.3642363, -71.09867979)",
        "Latitude_masked": -71.09867979,
        "Longitude_masked": -71.09867979,
        "Neighborhood": "The Port"
    },
    {
        "Dog_Name": "Eleanor",
        "Dog_Breed": "Yorkie Poo",
        "Location_masked": "(42.37412714, -71.08042717)",
        "Latitude_masked": -71.08042717,
        "Longitude_masked": -71.08042717,
        "Neighborhood": "East Cambridge"
    },
    {
        "Dog_Name": "Benyo",
        "Dog_Breed": "Spaniel",
        "Location_masked": "(42.37078041, -71.0956226)",
        "Latitude_masked": -71.0956226,
        "Longitude_masked": -71.0956226,
        "Neighborhood": "Wellington-Harrington"
    },
    {
        "Dog_Name": "Santana",
        "Dog_Breed": "Cavalier King Charles Mix",
        "Location_masked": "(42.37291141, -71.09709522)",
        "Latitude_masked": -71.09709522,
        "Longitude_masked": -71.09709522,
        "Neighborhood": "Wellington-Harrington"
    },
    {
        "Dog_Name": "Bay",
        "Dog_Breed": "Pit",
        "Location_masked": "(42.36193243, -71.10495513)",
        "Latitude_masked": -71.10495513,
        "Longitude_masked": -71.10495513,
        "Neighborhood": "Cambridgeport"
    },
    {
        "Dog_Name": "Rivet",
        "Dog_Breed": "Siberian Husky",
        "Location_masked": "(42.36460416, -71.10975047)",
        "Latitude_masked": -71.10975047,
        "Longitude_masked": -71.10975047,
        "Neighborhood": "Riverside"
    },
    {
        "Dog_Name": "Harry",
        "Dog_Breed": "Sheep Dog",
        "Location_masked": "(42.37745174, -71.1347854)",
        "Latitude_masked": -71.1347854,
        "Longitude_masked": -71.1347854,
        "Neighborhood": "West Cambridge"
    },
    {
        "Dog_Name": "Roxy",
        "Dog_Breed": "Labrador Retriever",
        "Location_masked": "(42.38434856, -71.13117384)",
        "Latitude_masked": -71.13117384,
        "Longitude_masked": -71.13117384,
        "Neighborhood": "Neighborhood Nine"
    },
    {
        "Dog_Name": "Izzy",
        "Dog_Breed": "Greyhound",
        "Location_masked": "(42.3710573, -71.09979799)",
        "Latitude_masked": -71.09979799,
        "Longitude_masked": -71.09979799,
        "Neighborhood": "Wellington-Harrington"
    },
    {
        "Dog_Name": "Lucky",
        "Dog_Breed": "Labrador Retriever",
        "Location_masked": "(42.38184877, -71.13407633)",
        "Latitude_masked": -71.13407633,
        "Longitude_masked": -71.13407633,
        "Neighborhood": "West Cambridge"
    },
    {
        "Dog_Name": "Henry",
        "Dog_Breed": "Shih Tzu",
        "Location_masked": "(42.37481941, -71.12346859)",
        "Latitude_masked": -71.12346859,
        "Longitude_masked": -71.12346859,
        "Neighborhood": "West Cambridge"
    },
    {
        "Dog_Name": "Schnapps",
        "Dog_Breed": "Schnauzer Mix",
        "Location_masked": "(42.38367288, -71.13200857)",
        "Latitude_masked": -71.13200857,
        "Longitude_masked": -71.13200857,
        "Neighborhood": "Neighborhood Nine"
    },
    {
        "Dog_Name": "Louie",
        "Dog_Breed": "Australian Cattle Dog",
        "Location_masked": "(42.37397486, -71.08330227)",
        "Latitude_masked": -71.08330227,
        "Longitude_masked": -71.08330227,
        "Neighborhood": "East Cambridge"
    },
    {
        "Dog_Name": "Beau",
        "Dog_Breed": "Bernese & Border Mix",
        "Location_masked": "(42.39221445, -71.13912155)",
        "Latitude_masked": -71.13912155,
        "Longitude_masked": -71.13912155,
        "Neighborhood": "Neighborhood Nine"
    },
    {
        "Dog_Name": "Tyler",
        "Dog_Breed": "Boxer Mix",
        "Location_masked": "(42.39509705, -71.15630166)",
        "Latitude_masked": -71.15630166,
        "Longitude_masked": -71.15630166,
        "Neighborhood": "Cambridge Highlands"
    },
    {
        "Dog_Name": "Winston",
        "Dog_Breed": "Maltese",
        "Location_masked": "(42.40191038, -71.15102152)",
        "Latitude_masked": -71.15102152,
        "Longitude_masked": -71.15102152,
        "Neighborhood": "North Cambridge"
    },
    {
        "Dog_Name": "Georgie",
        "Dog_Breed": "Border Collie",
        "Location_masked": "(42.38156958, -71.14290077)",
        "Latitude_masked": -71.14290077,
        "Longitude_masked": -71.14290077,
        "Neighborhood": "West Cambridge"
    },
    {
        "Dog_Name": "C.J.",
        "Dog_Breed": "Mix",
        "Location_masked": "(42.37236599, -71.08781667)",
        "Latitude_masked": -71.08781667,
        "Longitude_masked": -71.08781667,
        "Neighborhood": "East Cambridge"
    },
    {
        "Dog_Name": "Daisy",
        "Dog_Breed": "YORKIE MIX",
        "Location_masked": "(42.36711009, -71.09919008)",
        "Latitude_masked": -71.09919008,
        "Longitude_masked": -71.09919008,
        "Neighborhood": "The Port"
    },
    {
        "Dog_Name": "Baloo",
        "Dog_Breed": "LABRADOODLE",
        "Location_masked": "(42.36616797, -71.08315338)",
        "Latitude_masked": -71.08315338,
        "Longitude_masked": -71.08315338,
        "Neighborhood": "East Cambridge"
    },
    {
        "Dog_Name": "Flower",
        "Dog_Breed": "Chihuahua Mix",
        "Location_masked": "(42.36431679, -71.10718102)",
        "Latitude_masked": -71.10718102,
        "Longitude_masked": -71.10718102,
        "Neighborhood": "Cambridgeport"
    },
    {
        "Dog_Name": "Lily",
        "Dog_Breed": "Irish Setter",
        "Location_masked": "(42.37372557, -71.10125047)",
        "Latitude_masked": -71.10125047,
        "Longitude_masked": -71.10125047,
        "Neighborhood": "Mid-Cambridge"
    },
    {
        "Dog_Name": "Charlie",
        "Dog_Breed": "Min Australian Shepherd",
        "Location_masked": "(42.38694512, -71.12969051)",
        "Latitude_masked": -71.12969051,
        "Longitude_masked": -71.12969051,
        "Neighborhood": "Neighborhood Nine"
    },
    {
        "Dog_Name": "Mulligan",
        "Dog_Breed": null,
        "Location_masked": "(42.3813572, -71.13867777)",
        "Latitude_masked": -71.13867777,
        "Longitude_masked": -71.13867777,
        "Neighborhood": "West Cambridge"
    },
    {
        "Dog_Name": "Rosie",
        "Dog_Breed": "Coton De Tulear",
        "Location_masked": "(42.39479898, -71.12911504)",
        "Latitude_masked": -71.12911504,
        "Longitude_masked": -71.12911504,
        "Neighborhood": "North Cambridge"
    },
    {
        "Dog_Name": "Teddy",
        "Dog_Breed": "Norfolk Terrier",
        "Location_masked": "(42.37496334, -71.13681057)",
        "Latitude_masked": -71.13681057,
        "Longitude_masked": -71.13681057,
        "Neighborhood": "West Cambridge"
    },
    {
        "Dog_Name": "Atom",
        "Dog_Breed": "Terrier Mix",
        "Location_masked": "(42.39515744, -71.14381568)",
        "Latitude_masked": -71.14381568,
        "Longitude_masked": -71.14381568,
        "Neighborhood": "North Cambridge"
    },
    {
        "Dog_Name": "Rudy",
        "Dog_Breed": "Terrier",
        "Location_masked": "(42.39177651, -71.12871793)",
        "Latitude_masked": -71.12871793,
        "Longitude_masked": -71.12871793,
        "Neighborhood": "North Cambridge"
    },
    {
        "Dog_Name": "Minnie",
        "Dog_Breed": "Scottish Terrier",
        "Location_masked": "(42.37495005, -71.10859032)",
        "Latitude_masked": -71.10859032,
        "Longitude_masked": -71.10859032,
        "Neighborhood": "Mid-Cambridge"
    },
    {
        "Dog_Name": "Susie",
        "Dog_Breed": "Mix",
        "Location_masked": "(42.38528179, -71.14043871)",
        "Latitude_masked": -71.14043871,
        "Longitude_masked": -71.14043871,
        "Neighborhood": "Neighborhood Nine"
    },
    {
        "Dog_Name": "Cleve",
        "Dog_Breed": "Standard Poodle",
        "Location_masked": "(42.36875107, -71.11101273)",
        "Latitude_masked": -71.11101273,
        "Longitude_masked": -71.11101273,
        "Neighborhood": "Riverside"
    },
    {
        "Dog_Name": "Sierra",
        "Dog_Breed": "Labrador Retriever",
        "Location_masked": "(42.3757541, -71.12380965)",
        "Latitude_masked": -71.12380965,
        "Longitude_masked": -71.12380965,
        "Neighborhood": "West Cambridge"
    },
    {
        "Dog_Name": "Nessy",
        "Dog_Breed": "Australian Shepherd",
        "Location_masked": "(42.38154143, -71.14165539)",
        "Latitude_masked": -71.14165539,
        "Longitude_masked": -71.14165539,
        "Neighborhood": "West Cambridge"
    },
    {
        "Dog_Name": "Burdick",
        "Dog_Breed": "Labrador Retriever",
        "Location_masked": "(42.37116064, -71.11047863)",
        "Latitude_masked": -71.11047863,
        "Longitude_masked": -71.11047863,
        "Neighborhood": "Mid-Cambridge"
    },
    {
        "Dog_Name": "George",
        "Dog_Breed": "Maltese",
        "Location_masked": "(42.39566844, -71.13474773)",
        "Latitude_masked": -71.13474773,
        "Longitude_masked": -71.13474773,
        "Neighborhood": "North Cambridge"
    },
    {
        "Dog_Name": "Biscuit",
        "Dog_Breed": "Yorksire Terrier",
        "Location_masked": "(42.36955115, -71.11240947)",
        "Latitude_masked": -71.11240947,
        "Longitude_masked": -71.11240947,
        "Neighborhood": "Mid-Cambridge"
    },
    {
        "Dog_Name": "Midnight",
        "Dog_Breed": "Pomeranian",
        "Location_masked": "(42.37013661, -71.0836577)",
        "Latitude_masked": -71.0836577,
        "Longitude_masked": -71.0836577,
        "Neighborhood": "East Cambridge"
    },
    {
        "Dog_Name": "Hazel",
        "Dog_Breed": "Corgi",
        "Location_masked": "(42.36856311, -71.09963798)",
        "Latitude_masked": -71.09963798,
        "Longitude_masked": -71.09963798,
        "Neighborhood": "The Port"
    },
    {
        "Dog_Name": "Ed",
        "Dog_Breed": "Australian Cattle Dog",
        "Location_masked": "(42.37862604, -71.11592404)",
        "Latitude_masked": -71.11592404,
        "Longitude_masked": -71.11592404,
        "Neighborhood": "Agassiz"
    },
    {
        "Dog_Name": "Louis",
        "Dog_Breed": "Maltese / Poodle Mix",
        "Location_masked": "(42.36719502, -71.10343729)",
        "Latitude_masked": -71.10343729,
        "Longitude_masked": -71.10343729,
        "Neighborhood": "Cambridgeport"
    },
    {
        "Dog_Name": "Logan",
        "Dog_Breed": "Estrela Mountain",
        "Location_masked": "(42.36348948, -71.10615697)",
        "Latitude_masked": -71.10615697,
        "Longitude_masked": -71.10615697,
        "Neighborhood": "Cambridgeport"
    },
    {
        "Dog_Name": "Athena",
        "Dog_Breed": "Pug",
        "Location_masked": "(42.3686986, -71.12096167)",
        "Latitude_masked": -71.12096167,
        "Longitude_masked": -71.12096167,
        "Neighborhood": "Riverside"
    },
    {
        "Dog_Name": "Tui",
        "Dog_Breed": "Mix",
        "Location_masked": "(42.37319248, -71.10890352)",
        "Latitude_masked": -71.10890352,
        "Longitude_masked": -71.10890352,
        "Neighborhood": "Mid-Cambridge"
    },
    {
        "Dog_Name": "Aki",
        "Dog_Breed": "Bichon Bolognese",
        "Location_masked": "(42.39675514, -71.14695009)",
        "Latitude_masked": -71.14695009,
        "Longitude_masked": -71.14695009,
        "Neighborhood": "North Cambridge"
    },
    {
        "Dog_Name": "Golden",
        "Dog_Breed": "Brittany Spaniel",
        "Location_masked": "(42.38641701, -71.12846526)",
        "Latitude_masked": -71.12846526,
        "Longitude_masked": -71.12846526,
        "Neighborhood": "Neighborhood Nine"
    },
    {
        "Dog_Name": "Marlowe",
        "Dog_Breed": "Maltese",
        "Location_masked": "(42.37435441, -71.11037997)",
        "Latitude_masked": -71.11037997,
        "Longitude_masked": -71.11037997,
        "Neighborhood": "Mid-Cambridge"
    },
    {
        "Dog_Name": "Laverne",
        "Dog_Breed": "Fox Terrier",
        "Location_masked": "(42.3758326, -71.13334258)",
        "Latitude_masked": -71.13334258,
        "Longitude_masked": -71.13334258,
        "Neighborhood": "West Cambridge"
    },
    {
        "Dog_Name": "Mia",
        "Dog_Breed": "Border Collie",
        "Location_masked": "(42.39334374, -71.14493792)",
        "Latitude_masked": -71.14493792,
        "Longitude_masked": -71.14493792,
        "Neighborhood": "Cambridge Highlands"
    },
    {
        "Dog_Name": "Kora",
        "Dog_Breed": "Australian Shepherd",
        "Location_masked": "(42.36626425, -71.0991028)",
        "Latitude_masked": -71.0991028,
        "Longitude_masked": -71.0991028,
        "Neighborhood": "The Port"
    },
    {
        "Dog_Name": "Buddy",
        "Dog_Breed": "Yorksire Terrier",
        "Location_masked": "(42.36851814, -71.08665841)",
        "Latitude_masked": -71.08665841,
        "Longitude_masked": -71.08665841,
        "Neighborhood": "East Cambridge"
    },
    {
        "Dog_Name": "Willie",
        "Dog_Breed": "Dachshund",
        "Location_masked": "(42.36405233, -71.11146816)",
        "Latitude_masked": -71.11146816,
        "Longitude_masked": -71.11146816,
        "Neighborhood": "Cambridgeport"
    },
    {
        "Dog_Name": "Bridget",
        "Dog_Breed": "Chihuahua",
        "Location_masked": "(42.38277721, -71.11421382)",
        "Latitude_masked": -71.11421382,
        "Longitude_masked": -71.11421382,
        "Neighborhood": "Agassiz"
    },
    {
        "Dog_Name": "Maggie",
        "Dog_Breed": "Schnauzer",
        "Location_masked": "(42.36863885, -71.09475863)",
        "Latitude_masked": -71.09475863,
        "Longitude_masked": -71.09475863,
        "Neighborhood": "Wellington-Harrington"
    },
    {
        "Dog_Name": "Misty",
        "Dog_Breed": "Border Collie",
        "Location_masked": "(42.38660896, -71.12169817)",
        "Latitude_masked": -71.12169817,
        "Longitude_masked": -71.12169817,
        "Neighborhood": "Neighborhood Nine"
    },
    {
        "Dog_Name": "Austin",
        "Dog_Breed": "Labradoodle",
        "Location_masked": "(42.38741204, -71.12672348)",
        "Latitude_masked": -71.12672348,
        "Longitude_masked": -71.12672348,
        "Neighborhood": "Neighborhood Nine"
    },
    {
        "Dog_Name": "Penny",
        "Dog_Breed": "Labrador Retriever Mix",
        "Location_masked": "(42.3656004, -71.08476119)",
        "Latitude_masked": -71.08476119,
        "Longitude_masked": -71.08476119,
        "Neighborhood": "East Cambridge"
    },
    {
        "Dog_Name": "Emerson",
        "Dog_Breed": "Golden Doodle",
        "Location_masked": "(42.37482407, -71.10875147)",
        "Latitude_masked": -71.10875147,
        "Longitude_masked": -71.10875147,
        "Neighborhood": "Mid-Cambridge"
    },
    {
        "Dog_Name": "Brillo",
        "Dog_Breed": "Dachshund",
        "Location_masked": "(42.36785862, -71.11571382)",
        "Latitude_masked": -71.11571382,
        "Longitude_masked": -71.11571382,
        "Neighborhood": "Riverside"
    },
    {
        "Dog_Name": "Souki",
        "Dog_Breed": "Labrador Retriever",
        "Location_masked": "(42.39247819, -71.13533711)",
        "Latitude_masked": -71.13533711,
        "Longitude_masked": -71.13533711,
        "Neighborhood": "North Cambridge"
    },
    {
        "Dog_Name": "Beezus",
        "Dog_Breed": "Shi Tsu / Terrier / Mix",
        "Location_masked": "(42.38595782, -71.12022712)",
        "Latitude_masked": -71.12022712,
        "Longitude_masked": -71.12022712,
        "Neighborhood": "Agassiz"
    },
    {
        "Dog_Name": "Mohican Madison",
        "Dog_Breed": "Greyhound",
        "Location_masked": "(42.3960144, -71.13510536)",
        "Latitude_masked": -71.13510536,
        "Longitude_masked": -71.13510536,
        "Neighborhood": "North Cambridge"
    },
    {
        "Dog_Name": "Edie",
        "Dog_Breed": "Mix",
        "Location_masked": "(42.37110775, -71.0966525)",
        "Latitude_masked": -71.0966525,
        "Longitude_masked": -71.0966525,
        "Neighborhood": "The Port"
    },
    {
        "Dog_Name": "Kima",
        "Dog_Breed": "Labrador Retriever Mix",
        "Location_masked": "(42.37193993, -71.10092433)",
        "Latitude_masked": -71.10092433,
        "Longitude_masked": -71.10092433,
        "Neighborhood": "Mid-Cambridge"
    },
    {
        "Dog_Name": "Bosco",
        "Dog_Breed": "Mix",
        "Location_masked": "(42.3780826, -71.11072946)",
        "Latitude_masked": -71.11072946,
        "Longitude_masked": -71.11072946,
        "Neighborhood": "Mid-Cambridge"
    },
    {
        "Dog_Name": "Rory",
        "Dog_Breed": "Collie",
        "Location_masked": "(42.38908956, -71.12622901)",
        "Latitude_masked": -71.12622901,
        "Longitude_masked": -71.12622901,
        "Neighborhood": "Neighborhood Nine"
    },
    {
        "Dog_Name": "Minga",
        "Dog_Breed": "Labrador Retriever",
        "Location_masked": "(42.37360939, -71.10292919)",
        "Latitude_masked": -71.10292919,
        "Longitude_masked": -71.10292919,
        "Neighborhood": "Mid-Cambridge"
    },
    {
        "Dog_Name": "Anzu",
        "Dog_Breed": "Labrador Retriever",
        "Location_masked": "(42.36779189, -71.10345343)",
        "Latitude_masked": -71.10345343,
        "Longitude_masked": -71.10345343,
        "Neighborhood": "Mid-Cambridge"
    },
    {
        "Dog_Name": "Panda",
        "Dog_Breed": "Mix",
        "Location_masked": "(42.36857237, -71.07068266)",
        "Latitude_masked": -71.07068266,
        "Longitude_masked": -71.07068266,
        "Neighborhood": "East Cambridge"
    },
    {
        "Dog_Name": "Bella",
        "Dog_Breed": "Goldendoodle",
        "Location_masked": "(42.37173035, -71.08696837)",
        "Latitude_masked": -71.08696837,
        "Longitude_masked": -71.08696837,
        "Neighborhood": "Wellington-Harrington"
    },
    {
        "Dog_Name": "Baxter",
        "Dog_Breed": "Beagle",
        "Location_masked": "(42.38553648, -71.13366604)",
        "Latitude_masked": -71.13366604,
        "Longitude_masked": -71.13366604,
        "Neighborhood": "Neighborhood Nine"
    },
    {
        "Dog_Name": "Nora",
        "Dog_Breed": "Dachshund",
        "Location_masked": "(42.38399035, -71.1333783)",
        "Latitude_masked": -71.1333783,
        "Longitude_masked": -71.1333783,
        "Neighborhood": "West Cambridge"
    },
    {
        "Dog_Name": "Obi",
        "Dog_Breed": "Australian Shepherd",
        "Location_masked": "(42.35698833, -71.10630827)",
        "Latitude_masked": -71.10630827,
        "Longitude_masked": -71.10630827,
        "Neighborhood": "Cambridgeport"
    },
    {
        "Dog_Name": "Lallygag",
        "Dog_Breed": "Tibetan Terrier",
        "Location_masked": "(42.38090109, -71.12672733)",
        "Latitude_masked": -71.12672733,
        "Longitude_masked": -71.12672733,
        "Neighborhood": "West Cambridge"
    },
    {
        "Dog_Name": "Lainey",
        "Dog_Breed": "BEAGLE",
        "Location_masked": "(42.39556155, -71.12764673)",
        "Latitude_masked": -71.12764673,
        "Longitude_masked": -71.12764673,
        "Neighborhood": "North Cambridge"
    },
    {
        "Dog_Name": "Sammie",
        "Dog_Breed": "Cockerpoo",
        "Location_masked": "(42.37062225, -71.10312519)",
        "Latitude_masked": -71.10312519,
        "Longitude_masked": -71.10312519,
        "Neighborhood": "Mid-Cambridge"
    },
    {
        "Dog_Name": "Kramer",
        "Dog_Breed": "Yorksire Terrier",
        "Location_masked": "(42.3988923, -71.13134545)",
        "Latitude_masked": -71.13134545,
        "Longitude_masked": -71.13134545,
        "Neighborhood": "North Cambridge"
    },
    {
        "Dog_Name": "Joey",
        "Dog_Breed": "Labradoodle",
        "Location_masked": "(42.3828709, -71.11928795)",
        "Latitude_masked": -71.11928795,
        "Longitude_masked": -71.11928795,
        "Neighborhood": "Agassiz"
    },
    {
        "Dog_Name": "Nonnie",
        "Dog_Breed": "Miniature Poodle",
        "Location_masked": "(42.35985506, -71.11243786)",
        "Latitude_masked": -71.11243786,
        "Longitude_masked": -71.11243786,
        "Neighborhood": "Cambridgeport"
    },
    {
        "Dog_Name": "Snowball",
        "Dog_Breed": "Miniature American Eskimo",
        "Location_masked": "(42.36704088, -71.0844613)",
        "Latitude_masked": -71.0844613,
        "Longitude_masked": -71.0844613,
        "Neighborhood": "East Cambridge"
    },
    {
        "Dog_Name": "Annie",
        "Dog_Breed": "West Highland White Terrier",
        "Location_masked": "(42.36910888, -71.10029773)",
        "Latitude_masked": -71.10029773,
        "Longitude_masked": -71.10029773,
        "Neighborhood": "The Port"
    },
    {
        "Dog_Name": "Doug",
        "Dog_Breed": "Terrier",
        "Location_masked": "(42.3832443, -71.13597033)",
        "Latitude_masked": -71.13597033,
        "Longitude_masked": -71.13597033,
        "Neighborhood": "West Cambridge"
    },
    {
        "Dog_Name": "Mo",
        "Dog_Breed": "Maltese",
        "Location_masked": "(42.36432394, -71.11502463)",
        "Latitude_masked": -71.11502463,
        "Longitude_masked": -71.11502463,
        "Neighborhood": "Riverside"
    },
    {
        "Dog_Name": "Nuala",
        "Dog_Breed": "Australian Cattle Dog",
        "Location_masked": "(42.38233408, -71.13772875)",
        "Latitude_masked": -71.13772875,
        "Longitude_masked": -71.13772875,
        "Neighborhood": "West Cambridge"
    },
    {
        "Dog_Name": "Finn",
        "Dog_Breed": "Labrador Retriever",
        "Location_masked": "(42.37924078, -71.14222925)",
        "Latitude_masked": -71.14222925,
        "Longitude_masked": -71.14222925,
        "Neighborhood": "West Cambridge"
    },
    {
        "Dog_Name": "Porter",
        "Dog_Breed": "Miniatue Pinscher",
        "Location_masked": "(42.36953433, -71.08011067)",
        "Latitude_masked": -71.08011067,
        "Longitude_masked": -71.08011067,
        "Neighborhood": "East Cambridge"
    },
    {
        "Dog_Name": "Daisy",
        "Dog_Breed": "Lab Mix",
        "Location_masked": "(42.40078327, -71.13434168)",
        "Latitude_masked": -71.13434168,
        "Longitude_masked": -71.13434168,
        "Neighborhood": "North Cambridge"
    },
    {
        "Dog_Name": "Fred",
        "Dog_Breed": "Boxer",
        "Location_masked": "(42.39904278, -71.13620389)",
        "Latitude_masked": -71.13620389,
        "Longitude_masked": -71.13620389,
        "Neighborhood": "North Cambridge"
    },
    {
        "Dog_Name": "Sam",
        "Dog_Breed": "Miniature Dachshund",
        "Location_masked": "(42.39577348, -71.12774692)",
        "Latitude_masked": -71.12774692,
        "Longitude_masked": -71.12774692,
        "Neighborhood": "North Cambridge"
    },
    {
        "Dog_Name": "Rue",
        "Dog_Breed": "Corgi",
        "Location_masked": "(42.36939531, -71.08261195)",
        "Latitude_masked": -71.08261195,
        "Longitude_masked": -71.08261195,
        "Neighborhood": "East Cambridge"
    },
    {
        "Dog_Name": "Cassie",
        "Dog_Breed": "Corgi",
        "Location_masked": "(42.38000986, -71.10961261)",
        "Latitude_masked": -71.10961261,
        "Longitude_masked": -71.10961261,
        "Neighborhood": "Agassiz"
    },
    {
        "Dog_Name": "Avett",
        "Dog_Breed": "Terrier Mix",
        "Location_masked": "(42.38272992, -71.13727131)",
        "Latitude_masked": -71.13727131,
        "Longitude_masked": -71.13727131,
        "Neighborhood": "West Cambridge"
    },
    {
        "Dog_Name": "Phatty",
        "Dog_Breed": "Vizsla",
        "Location_masked": "(42.39400638, -71.13586611)",
        "Latitude_masked": -71.13586611,
        "Longitude_masked": -71.13586611,
        "Neighborhood": "North Cambridge"
    },
    {
        "Dog_Name": "Teddy",
        "Dog_Breed": "Corgi",
        "Location_masked": "(42.3726481, -71.10725042)",
        "Latitude_masked": -71.10725042,
        "Longitude_masked": -71.10725042,
        "Neighborhood": "Mid-Cambridge"
    },
    {
        "Dog_Name": "Odette",
        "Dog_Breed": "Boxer Mix",
        "Location_masked": "(42.37316252, -71.07936782)",
        "Latitude_masked": -71.07936782,
        "Longitude_masked": -71.07936782,
        "Neighborhood": "East Cambridge"
    },
    {
        "Dog_Name": "Cheyenne",
        "Dog_Breed": "Labrador Retriever",
        "Location_masked": "(42.37941722, -71.13998776)",
        "Latitude_masked": -71.13998776,
        "Longitude_masked": -71.13998776,
        "Neighborhood": "West Cambridge"
    },
    {
        "Dog_Name": "Fergus",
        "Dog_Breed": "Terrier",
        "Location_masked": "(42.3650098, -71.08344795)",
        "Latitude_masked": -71.08344795,
        "Longitude_masked": -71.08344795,
        "Neighborhood": "East Cambridge"
    },
    {
        "Dog_Name": "Hunter",
        "Dog_Breed": "Maltipoo",
        "Location_masked": "(42.37910251, -71.13480402)",
        "Latitude_masked": -71.13480402,
        "Longitude_masked": -71.13480402,
        "Neighborhood": "West Cambridge"
    },
    {
        "Dog_Name": "Ricky",
        "Dog_Breed": "Chihuahua",
        "Location_masked": "(42.36038312, -71.10779074)",
        "Latitude_masked": -71.10779074,
        "Longitude_masked": -71.10779074,
        "Neighborhood": "Cambridgeport"
    },
    {
        "Dog_Name": "Maybel",
        "Dog_Breed": "Chihuahua",
        "Location_masked": "(42.37124315, -71.0829463)",
        "Latitude_masked": -71.0829463,
        "Longitude_masked": -71.0829463,
        "Neighborhood": "East Cambridge"
    },
    {
        "Dog_Name": "Bonnie Killeen",
        "Dog_Breed": "Labrador Ter Mix",
        "Location_masked": "(42.39690061, -71.14713971)",
        "Latitude_masked": -71.14713971,
        "Longitude_masked": -71.14713971,
        "Neighborhood": "North Cambridge"
    },
    {
        "Dog_Name": "Garbanzo",
        "Dog_Breed": "Yorksire Terrier",
        "Location_masked": "(42.36359238, -71.10682804)",
        "Latitude_masked": -71.10682804,
        "Longitude_masked": -71.10682804,
        "Neighborhood": "Cambridgeport"
    },
    {
        "Dog_Name": "Boo",
        "Dog_Breed": "Shih Tzu",
        "Location_masked": "(42.39763004, -71.1404461)",
        "Latitude_masked": -71.1404461,
        "Longitude_masked": -71.1404461,
        "Neighborhood": "North Cambridge"
    },
    {
        "Dog_Name": "Oscar",
        "Dog_Breed": "Lhasa Apso",
        "Location_masked": "(42.37629697, -71.14927951)",
        "Latitude_masked": -71.14927951,
        "Longitude_masked": -71.14927951,
        "Neighborhood": "Strawberry Hill"
    },
    {
        "Dog_Name": "Otis",
        "Dog_Breed": "Corgi",
        "Location_masked": "(42.36404026, -71.08476393)",
        "Latitude_masked": -71.08476393,
        "Longitude_masked": -71.08476393,
        "Neighborhood": "East Cambridge"
    },
    {
        "Dog_Name": "Milo",
        "Dog_Breed": "Boxer",
        "Location_masked": "(42.37122313, -71.10482569)",
        "Latitude_masked": -71.10482569,
        "Longitude_masked": -71.10482569,
        "Neighborhood": "Mid-Cambridge"
    },
    {
        "Dog_Name": "Geyser",
        "Dog_Breed": "Cocker Spaniel",
        "Location_masked": "(42.38263333, -71.13819013)",
        "Latitude_masked": -71.13819013,
        "Longitude_masked": -71.13819013,
        "Neighborhood": "West Cambridge"
    },
    {
        "Dog_Name": "Bellman Ford",
        "Dog_Breed": "Goldedoodle",
        "Location_masked": "(42.35751744, -71.10954808)",
        "Latitude_masked": -71.10954808,
        "Longitude_masked": -71.10954808,
        "Neighborhood": "Cambridgeport"
    },
    {
        "Dog_Name": "Max",
        "Dog_Breed": "Labrador Retriever",
        "Location_masked": "(42.4003802, -71.15343975)",
        "Latitude_masked": -71.15343975,
        "Longitude_masked": -71.15343975,
        "Neighborhood": "North Cambridge"
    },
    {
        "Dog_Name": "Duncan",
        "Dog_Breed": "Golden Retriever",
        "Location_masked": "(42.37871864, -71.13691792)",
        "Latitude_masked": -71.13691792,
        "Longitude_masked": -71.13691792,
        "Neighborhood": "West Cambridge"
    },
    {
        "Dog_Name": "Winny",
        "Dog_Breed": "Bichon Frise",
        "Location_masked": "(42.36828983, -71.11156972)",
        "Latitude_masked": -71.11156972,
        "Longitude_masked": -71.11156972,
        "Neighborhood": "Mid-Cambridge"
    },
    {
        "Dog_Name": "Bella",
        "Dog_Breed": "Terrier",
        "Location_masked": "(42.38834212, -71.12423788)",
        "Latitude_masked": -71.12423788,
        "Longitude_masked": -71.12423788,
        "Neighborhood": "North Cambridge"
    },
    {
        "Dog_Name": "Orange",
        "Dog_Breed": "Pug",
        "Location_masked": "(42.37671731, -71.09520621)",
        "Latitude_masked": -71.09520621,
        "Longitude_masked": -71.09520621,
        "Neighborhood": null
    },
    {
        "Dog_Name": "S.K.",
        "Dog_Breed": "Greyhound",
        "Location_masked": "(42.37986558, -71.12070555)",
        "Latitude_masked": -71.12070555,
        "Longitude_masked": -71.12070555,
        "Neighborhood": "Neighborhood Nine"
    },
    {
        "Dog_Name": "Daisy",
        "Dog_Breed": "Cockerpoo",
        "Location_masked": "(42.38030324, -71.11043989)",
        "Latitude_masked": -71.11043989,
        "Longitude_masked": -71.11043989,
        "Neighborhood": "Agassiz"
    },
    {
        "Dog_Name": "Baxter",
        "Dog_Breed": "Boxer",
        "Location_masked": "(42.36580907, -71.11021125)",
        "Latitude_masked": -71.11021125,
        "Longitude_masked": -71.11021125,
        "Neighborhood": "Riverside"
    },
    {
        "Dog_Name": "Stanley",
        "Dog_Breed": "Shih Tzu Mix",
        "Location_masked": "(42.38120091, -71.11840083)",
        "Latitude_masked": -71.11840083,
        "Longitude_masked": -71.11840083,
        "Neighborhood": "Agassiz"
    },
    {
        "Dog_Name": "Oliver",
        "Dog_Breed": "Shih Tzu",
        "Location_masked": "(42.3705327, -71.09289642)",
        "Latitude_masked": -71.09289642,
        "Longitude_masked": -71.09289642,
        "Neighborhood": "Wellington-Harrington"
    },
    {
        "Dog_Name": "Oscar",
        "Dog_Breed": "Labrador Reetriever",
        "Location_masked": "(42.37134858, -71.11153742)",
        "Latitude_masked": -71.11153742,
        "Longitude_masked": -71.11153742,
        "Neighborhood": "Mid-Cambridge"
    },
    {
        "Dog_Name": "Hopi",
        "Dog_Breed": "Siberian Husky",
        "Location_masked": "(42.36636252, -71.08194587)",
        "Latitude_masked": -71.08194587,
        "Longitude_masked": -71.08194587,
        "Neighborhood": "East Cambridge"
    },
    {
        "Dog_Name": "Quinn",
        "Dog_Breed": "Portuguese Water Dog",
        "Location_masked": "(42.38552466, -71.11811362)",
        "Latitude_masked": -71.11811362,
        "Longitude_masked": -71.11811362,
        "Neighborhood": "Agassiz"
    },
    {
        "Dog_Name": "Lucy",
        "Dog_Breed": "Labrador Retriever Mix",
        "Location_masked": "(42.39037319, -71.12178978)",
        "Latitude_masked": -71.12178978,
        "Longitude_masked": -71.12178978,
        "Neighborhood": "North Cambridge"
    },
    {
        "Dog_Name": "Henry Zoltani",
        "Dog_Breed": "French Bulldog",
        "Location_masked": "(42.39368703, -71.14799946)",
        "Latitude_masked": -71.14799946,
        "Longitude_masked": -71.14799946,
        "Neighborhood": "North Cambridge"
    },
    {
        "Dog_Name": "Clementine",
        "Dog_Breed": "Labrador Retriever",
        "Location_masked": "(42.383429, -71.1133736)",
        "Latitude_masked": -71.1133736,
        "Longitude_masked": -71.1133736,
        "Neighborhood": "Agassiz"
    },
    {
        "Dog_Name": "Jolene",
        "Dog_Breed": "Shep",
        "Location_masked": "(42.36256221, -71.11141261)",
        "Latitude_masked": -71.11141261,
        "Longitude_masked": -71.11141261,
        "Neighborhood": "Riverside"
    },
    {
        "Dog_Name": "Duango",
        "Dog_Breed": "Chihuahua",
        "Location_masked": "(42.37060844, -71.11707437)",
        "Latitude_masked": -71.11707437,
        "Longitude_masked": -71.11707437,
        "Neighborhood": "Riverside"
    },
    {
        "Dog_Name": "Maisy",
        "Dog_Breed": "Golden Retriever",
        "Location_masked": "(42.37055749, -71.09826369)",
        "Latitude_masked": -71.09826369,
        "Longitude_masked": -71.09826369,
        "Neighborhood": "The Port"
    },
    {
        "Dog_Name": "Celeste",
        "Dog_Breed": "Poodle",
        "Location_masked": "(42.37668166, -71.11009992)",
        "Latitude_masked": -71.11009992,
        "Longitude_masked": -71.11009992,
        "Neighborhood": "Agassiz"
    },
    {
        "Dog_Name": "Brown Boy",
        "Dog_Breed": null,
        "Location_masked": "(42.3834995, -71.13705809)",
        "Latitude_masked": -71.13705809,
        "Longitude_masked": -71.13705809,
        "Neighborhood": "West Cambridge"
    },
    {
        "Dog_Name": "Pascal",
        "Dog_Breed": "Cockerpoo",
        "Location_masked": "(42.36067231, -71.10753945)",
        "Latitude_masked": -71.10753945,
        "Longitude_masked": -71.10753945,
        "Neighborhood": "Cambridgeport"
    },
    {
        "Dog_Name": "Miles",
        "Dog_Breed": "Cairn Terrier",
        "Location_masked": "(42.36657946, -71.10200472)",
        "Latitude_masked": -71.10200472,
        "Longitude_masked": -71.10200472,
        "Neighborhood": "The Port"
    },
    {
        "Dog_Name": "Wallace",
        "Dog_Breed": "Labrador Retriever",
        "Location_masked": "(42.37223343, -71.08198014)",
        "Latitude_masked": -71.08198014,
        "Longitude_masked": -71.08198014,
        "Neighborhood": "East Cambridge"
    },
    {
        "Dog_Name": "Jules",
        "Dog_Breed": "Labrador Retriever Mix",
        "Location_masked": "(42.38756501, -71.14540013)",
        "Latitude_masked": -71.14540013,
        "Longitude_masked": -71.14540013,
        "Neighborhood": "Cambridge Highlands"
    },
    {
        "Dog_Name": "Ayanna",
        "Dog_Breed": "Pomeranian",
        "Location_masked": "(42.39050399, -71.1460992)",
        "Latitude_masked": -71.1460992,
        "Longitude_masked": -71.1460992,
        "Neighborhood": "Cambridge Highlands"
    },
    {
        "Dog_Name": "Echo",
        "Dog_Breed": "Labradoodle Mix",
        "Location_masked": "(42.38209556, -71.11941284)",
        "Latitude_masked": -71.11941284,
        "Longitude_masked": -71.11941284,
        "Neighborhood": "Neighborhood Nine"
    },
    {
        "Dog_Name": "Cassidy",
        "Dog_Breed": "Australian Shepherd",
        "Location_masked": "(42.37601259, -71.14765956)",
        "Latitude_masked": -71.14765956,
        "Longitude_masked": -71.14765956,
        "Neighborhood": "West Cambridge"
    },
    {
        "Dog_Name": "Bandit",
        "Dog_Breed": "Chihuahua",
        "Location_masked": "(42.39244748, -71.14739839)",
        "Latitude_masked": -71.14739839,
        "Longitude_masked": -71.14739839,
        "Neighborhood": "Cambridge Highlands"
    },
    {
        "Dog_Name": "Sam",
        "Dog_Breed": "Puggle",
        "Location_masked": "(42.39662992, -71.13011069)",
        "Latitude_masked": -71.13011069,
        "Longitude_masked": -71.13011069,
        "Neighborhood": "North Cambridge"
    },
    {
        "Dog_Name": "Homer",
        "Dog_Breed": "Labrador Retriever",
        "Location_masked": "(42.38097331, -71.12852732)",
        "Latitude_masked": -71.12852732,
        "Longitude_masked": -71.12852732,
        "Neighborhood": "Neighborhood Nine"
    },
    {
        "Dog_Name": "Oban",
        "Dog_Breed": "Tibetan Terrier",
        "Location_masked": "(42.37521735, -71.10883965)",
        "Latitude_masked": -71.10883965,
        "Longitude_masked": -71.10883965,
        "Neighborhood": "Mid-Cambridge"
    },
    {
        "Dog_Name": "Smudge",
        "Dog_Breed": "Havanese",
        "Location_masked": "(42.37917861, -71.12299643)",
        "Latitude_masked": -71.12299643,
        "Longitude_masked": -71.12299643,
        "Neighborhood": "Neighborhood Nine"
    },
    {
        "Dog_Name": "Winter",
        "Dog_Breed": "Jack Russel Terrier",
        "Location_masked": "(42.36880162, -71.09389766)",
        "Latitude_masked": -71.09389766,
        "Longitude_masked": -71.09389766,
        "Neighborhood": "The Port"
    },
    {
        "Dog_Name": "Arya",
        "Dog_Breed": "Samoyed",
        "Location_masked": "(42.36344082, -71.10862597)",
        "Latitude_masked": -71.10862597,
        "Longitude_masked": -71.10862597,
        "Neighborhood": "Cambridgeport"
    },
    {
        "Dog_Name": "Gunner",
        "Dog_Breed": "Cocker Spaniel",
        "Location_masked": "(42.4031883, -71.13420255)",
        "Latitude_masked": -71.13420255,
        "Longitude_masked": -71.13420255,
        "Neighborhood": "North Cambridge"
    },
    {
        "Dog_Name": "Roux",
        "Dog_Breed": "Catahoula Leopard Dog Mix",
        "Location_masked": "(42.35525621, -71.11001291)",
        "Latitude_masked": -71.11001291,
        "Longitude_masked": -71.11001291,
        "Neighborhood": "Cambridgeport"
    },
    {
        "Dog_Name": "Oliver",
        "Dog_Breed": "Chihuahua Mix",
        "Location_masked": "(42.37660799, -71.14741468)",
        "Latitude_masked": -71.14741468,
        "Longitude_masked": -71.14741468,
        "Neighborhood": "West Cambridge"
    },
    {
        "Dog_Name": "Max",
        "Dog_Breed": "Yorksire Terrier",
        "Location_masked": "(42.3787097, -71.12584534)",
        "Latitude_masked": -71.12584534,
        "Longitude_masked": -71.12584534,
        "Neighborhood": "Neighborhood Nine"
    },
    {
        "Dog_Name": "Pearl",
        "Dog_Breed": "American Bulldog",
        "Location_masked": "(42.36512624, -71.09421407)",
        "Latitude_masked": -71.09421407,
        "Longitude_masked": -71.09421407,
        "Neighborhood": "The Port"
    },
    {
        "Dog_Name": "Chloe",
        "Dog_Breed": "Miniature Schnauzer",
        "Location_masked": "(42.37223036, -71.08004331)",
        "Latitude_masked": -71.08004331,
        "Longitude_masked": -71.08004331,
        "Neighborhood": "East Cambridge"
    },
    {
        "Dog_Name": "Blaze",
        "Dog_Breed": "Labrador Retriever",
        "Location_masked": "(42.38409336, -71.13534542)",
        "Latitude_masked": -71.13534542,
        "Longitude_masked": -71.13534542,
        "Neighborhood": "West Cambridge"
    },
    {
        "Dog_Name": "Gimli",
        "Dog_Breed": "Boston Terr",
        "Location_masked": "(42.39983736, -71.13561112)",
        "Latitude_masked": -71.13561112,
        "Longitude_masked": -71.13561112,
        "Neighborhood": "North Cambridge"
    },
    {
        "Dog_Name": "Cobalt",
        "Dog_Breed": "Alapha Blue Blood Bulldog",
        "Location_masked": "(42.39371984, -71.14108494)",
        "Latitude_masked": -71.14108494,
        "Longitude_masked": -71.14108494,
        "Neighborhood": "North Cambridge"
    },
    {
        "Dog_Name": "Wiley",
        "Dog_Breed": "American Water Spaniel",
        "Location_masked": "(42.39033192, -71.12227319)",
        "Latitude_masked": -71.12227319,
        "Longitude_masked": -71.12227319,
        "Neighborhood": "North Cambridge"
    },
    {
        "Dog_Name": "Serafina",
        "Dog_Breed": "Plott Hound",
        "Location_masked": "(42.37005949, -71.09320433)",
        "Latitude_masked": -71.09320433,
        "Longitude_masked": -71.09320433,
        "Neighborhood": "Wellington-Harrington"
    },
    {
        "Dog_Name": "Connie",
        "Dog_Breed": "Old English Sheepdog",
        "Location_masked": "(42.37358461, -71.13765765)",
        "Latitude_masked": -71.13765765,
        "Longitude_masked": -71.13765765,
        "Neighborhood": "West Cambridge"
    },
    {
        "Dog_Name": "Sammie",
        "Dog_Breed": "Cavapoo",
        "Location_masked": "(42.36900706, -71.09560078)",
        "Latitude_masked": -71.09560078,
        "Longitude_masked": -71.09560078,
        "Neighborhood": "Wellington-Harrington"
    },
    {
        "Dog_Name": "Maximus",
        "Dog_Breed": "Golden Retriever",
        "Location_masked": "(42.39294959, -71.1373137)",
        "Latitude_masked": -71.1373137,
        "Longitude_masked": -71.1373137,
        "Neighborhood": "North Cambridge"
    },
    {
        "Dog_Name": "Fiona",
        "Dog_Breed": "Lhasa Apso Mix",
        "Location_masked": "(42.37419826, -71.11006005)",
        "Latitude_masked": -71.11006005,
        "Longitude_masked": -71.11006005,
        "Neighborhood": "Mid-Cambridge"
    },
    {
        "Dog_Name": "Mishka",
        "Dog_Breed": "Portuguese Water Dog",
        "Location_masked": "(42.38697566, -71.13547572)",
        "Latitude_masked": -71.13547572,
        "Longitude_masked": -71.13547572,
        "Neighborhood": "Neighborhood Nine"
    },
    {
        "Dog_Name": "Kit",
        "Dog_Breed": "Labrador Retriever Mix",
        "Location_masked": "(42.37742215, -71.15649752)",
        "Latitude_masked": -71.15649752,
        "Longitude_masked": -71.15649752,
        "Neighborhood": "Strawberry Hill"
    },
    {
        "Dog_Name": "Race",
        "Dog_Breed": "Cavalier King Charles Spaniel",
        "Location_masked": "(42.38439592, -71.11438266)",
        "Latitude_masked": -71.11438266,
        "Longitude_masked": -71.11438266,
        "Neighborhood": "Agassiz"
    },
    {
        "Dog_Name": "Lucca",
        "Dog_Breed": "Border Collie Mix",
        "Location_masked": "(42.37444575, -71.12799727)",
        "Latitude_masked": -71.12799727,
        "Longitude_masked": -71.12799727,
        "Neighborhood": "West Cambridge"
    },
    {
        "Dog_Name": "Sally",
        "Dog_Breed": "German Shepherd",
        "Location_masked": "(42.39072985, -71.12761962)",
        "Latitude_masked": -71.12761962,
        "Longitude_masked": -71.12761962,
        "Neighborhood": "North Cambridge"
    },
    {
        "Dog_Name": "Rosie",
        "Dog_Breed": "Shih Tzu",
        "Location_masked": "(42.37877145, -71.13762599)",
        "Latitude_masked": -71.13762599,
        "Longitude_masked": -71.13762599,
        "Neighborhood": "West Cambridge"
    },
    {
        "Dog_Name": "Opie",
        "Dog_Breed": "Labrador Retriever Mix",
        "Location_masked": "(42.40087772, -71.15073133)",
        "Latitude_masked": -71.15073133,
        "Longitude_masked": -71.15073133,
        "Neighborhood": "North Cambridge"
    },
    {
        "Dog_Name": "Blackberry",
        "Dog_Breed": "Toy Poddle",
        "Location_masked": "(42.39435469, -71.14387883)",
        "Latitude_masked": -71.14387883,
        "Longitude_masked": -71.14387883,
        "Neighborhood": "North Cambridge"
    },
    {
        "Dog_Name": "Tatum",
        "Dog_Breed": "Norfolk Terrier",
        "Location_masked": "(42.37466726, -71.14166544)",
        "Latitude_masked": -71.14166544,
        "Longitude_masked": -71.14166544,
        "Neighborhood": "West Cambridge"
    },
    {
        "Dog_Name": "Ginger",
        "Dog_Breed": "Terrier",
        "Location_masked": "(42.37686647, -71.10776361)",
        "Latitude_masked": -71.10776361,
        "Longitude_masked": -71.10776361,
        "Neighborhood": "Agassiz"
    },
    {
        "Dog_Name": "Daisy",
        "Dog_Breed": "Chihuahua",
        "Location_masked": "(42.3904687, -71.13074836)",
        "Latitude_masked": -71.13074836,
        "Longitude_masked": -71.13074836,
        "Neighborhood": "Neighborhood Nine"
    },
    {
        "Dog_Name": "Lulu",
        "Dog_Breed": "Pit Bull",
        "Location_masked": "(42.36508337, -71.09626126)",
        "Latitude_masked": -71.09626126,
        "Longitude_masked": -71.09626126,
        "Neighborhood": "The Port"
    },
    {
        "Dog_Name": "Ryder",
        "Dog_Breed": "American Pit Bull Terrier",
        "Location_masked": "(42.36646284, -71.08568701)",
        "Latitude_masked": -71.08568701,
        "Longitude_masked": -71.08568701,
        "Neighborhood": "East Cambridge"
    },
    {
        "Dog_Name": "Wingnut",
        "Dog_Breed": "Siberian Husky",
        "Location_masked": "(42.36371668, -71.10979319)",
        "Latitude_masked": -71.10979319,
        "Longitude_masked": -71.10979319,
        "Neighborhood": "Riverside"
    },
    {
        "Dog_Name": "Winnie",
        "Dog_Breed": "Siberian Husky",
        "Location_masked": "(42.38176772, -71.13875621)",
        "Latitude_masked": -71.13875621,
        "Longitude_masked": -71.13875621,
        "Neighborhood": "West Cambridge"
    },
    {
        "Dog_Name": "Tashi",
        "Dog_Breed": "Lhasa Apso",
        "Location_masked": "(42.3827456, -71.12097681)",
        "Latitude_masked": -71.12097681,
        "Longitude_masked": -71.12097681,
        "Neighborhood": "Neighborhood Nine"
    },
    {
        "Dog_Name": "Sophie",
        "Dog_Breed": "Cocker Spaniel Mix",
        "Location_masked": "(42.39353944, -71.15733282)",
        "Latitude_masked": -71.15733282,
        "Longitude_masked": -71.15733282,
        "Neighborhood": "Cambridge Highlands"
    },
    {
        "Dog_Name": "Molly",
        "Dog_Breed": "Poodle Mix",
        "Location_masked": "(42.36051679, -71.11187816)",
        "Latitude_masked": -71.11187816,
        "Longitude_masked": -71.11187816,
        "Neighborhood": "Cambridgeport"
    },
    {
        "Dog_Name": "Titan",
        "Dog_Breed": "Puggle",
        "Location_masked": "(42.36159252, -71.10932158)",
        "Latitude_masked": -71.10932158,
        "Longitude_masked": -71.10932158,
        "Neighborhood": "Cambridgeport"
    },